n_ref,statut_infos,departement,ville,code_commune,nom,structure_porteuse,code_postal,adresse,adresse_suite,adresse_full,nature_juridique,type_lieu,rattachement,tel_structure,email_structure,site_internet,lundi,mardi,mercredi,jeudi,vendredi,samedi,dimanche,date_maj,public_toutes_actions,conditions_acces_toutes_actions,type_mediation_1,public_si_different_1,conditions_acces_si_diff_1,presta_mediation_1,type_mediation_2,public_si_different_2,conditions_acces_si_diff_2,presta_mediation_2,type_mediation_3,public_si_different_3,conditions_acces_si_diff_3,presta_mediation_3,type_mediation_4,public_si_different_4,conditions_acces_si_diff_4,presta_mediation_4,type_mediation_5,public_si_different_5,conditions_acces_si_diff_5,presta_mediation_5,code_label,wifi,precisions,codes_types_mediations,codes_publics,codes_thematiques,lat,lon,BAN_latitude,BAN_longitude,BAN_adress,BAN_adress_full,BAN_city,BAN_postcode,BAN_depcode
Ref_0001,Actualisé (S.),11,Alzonne,,FEP Médiathèque,Carcasonne Agglo,11170,Parc municipal,,Parc municipal 11170 Alzonne,,Médiathèque,,04 68 76 33 02,fep.alzonne@wanadoo.fr,https://mediatheque.carcassonne-agglo.fr/fr/index.html,Fermé,14h-18h,10h-12h30 / 14h-18h,Fermé,14h-18h,10h-13h,Fermé,Decembre 2018,,,ORD,,,,,,,,,,,,,,,,,,,,,,,ORD,,,43.254495,2.175926,43.254495,2.175926,Rue du Parc,Rue du Parc 11170 Alzonne,Alzonne,11170,11
Ref_0002,,11,Berriac,,Le Relai,,11000,,,11000 Berriac,Association,,,,,,,,,,,,,Decembre 2019,,,,,,,,,,,,,,,,,,,,,,,,,,,,,43.213065,2.402611,43.213065,2.402611,Berriac,Berriac,Berriac,11000,11
Ref_0003,,11,Bouisse,,Maison de services au public POM's de Bouisse,,11330,11 Avenue Las Nautas Corbieras,,11 Avenue Las Nautas Corbieras 11330 Bouisse,,MSAP,,04 68 48 88 73,poms.bouisse@orange.fr,,,,,,,,,Octobre 2020,,,,,,,,,,,,,,,,,,,,,,,MSAP,,,,,,42.986901,2.45379,42.986901,2.45379,11 Avenue de Las Nautas Corbieras,11 Avenue de Las Nautas Corbieras 11330 Bouisse,Bouisse,11330,11
Ref_0004,Actualisé (S.),11,Boutenac,,Mediatheque Milcom de Boutenac,,11200,8 Boulevard de Ronde,,8 Boulevard de Ronde 11200 Boutenac,Collectivité territoriale,Médiathèque,,04 68 45 79 61,contact@ccrlcm.fr,https://www.ccrlcm.fr/,,14h-18h,14h-18h,,14h-18h,,,Octobre 2020,,,ORD,,,,,,,,,,,,,,,,,,,,,,,ORD,,,43.147672,2.788775,43.147672,2.788775,8 Boulevard de Ronde,8 Boulevard de Ronde 11200 Boutenac,Boutenac,11200,11
Ref_0005,,11,Bram,,France Services - Piège Lauragais Malepere,Communauté De Commune PIEGE LAURAGAIS MALEPERE,11150,62 rue bonrepos,,62 rue bonrepos 11150 Bram,Collectivité territoriale,,,,msap@ccplm.fr,,8:30 - 12:00 / 13:30 - 17:00,8:30 - 12:00 / 13:30 - 17:00,8:30 - 12:00 / 13:30 - 17:00,8:30 - 12:00 / 13:30 - 17:00,8:30 - 12:00 / 13:30 - 17:00,-,,Janvier 2020,,,,,,,,,,,,,,,,,,,,,,,MFS,,,,,,43.241583,2.118852,43.241583,2.118852,62 Rue Bonrepos,62 Rue Bonrepos 11150 Bram,Bram,11150,11
Ref_0006,,11,Capendu,,France Services / MSAP - Carcassone Agglo,CARCASSONNE AGGLO,11700,2 rue des Figuères,,2 rue des Figuères 11700 Capendu,Collectivité territoriale,,,,msap@carcassonne-agglo.fr,,8:00 - 13:00 / 14:00 - 17:00,8:00 - 13:00 / 14:00 - 17:00,8:30 - 12:00,8:00 - 13:00 / 14:00 - 17:00,8:00 - 13:00 / 14:00 - 17:00,-,,Janvier 2020,,,,,,,,,,,,,,,,,,,,,,,MFS,,,,,,43.184142,2.556949,43.184142,2.556949,2 Rue des Figuéres,2 Rue des Figuéres 11700 Capendu,Capendu,11700,11
Ref_0007,Actualisé (S.),11,Carcasonne,,R'MINE - FABLAB CARACASSONNE AGGLO,CARCASSONNE AGGLO,11000,20 rue Claude CHAPPE,,20 rue Claude CHAPPE 11000 Carcasonne,Collectivité territoriale,,,04.68.11.95.58,rmine@carcassonne-agglo.fr,https://fablab.rmine.fr/,9h-17h,9h-17h,9h-17h,9h-17h,9h-17h,Fermé,Fermé,Octobre 2020,,,FL,,,,,,,,,,,,,,,,,,,,TL,,,FL,,,43.21177,2.324315,43.21177,2.324315,20 Rue Claude Chappe,20 Rue Claude Chappe 11000 Carcassonne,Carcassonne,11000,11
Ref_0008,Actualisé (S.),11,Carcassonne,,Régie de quartier,Le Comité National de liaison des Régies de quartier,11000,46 bis rue Alexandre Guiraud,,46 bis rue Alexandre Guiraud 11000 Carcassonne,Association,,,04 68 47 22 71 / 04 68 25 80 32,secretariat@regiedesquartiers.com,https://www.regie-quartiers-carcassonne.fr/,8h - 12h / 13h30 - 17h,8h - 12h / 13h30 - 17h,8h - 12h / 13h30 - 17h,8h - 12h / 13h30 - 17h,8h-12h,,,Octobre 2020,,,,,,,,,,,,,,,,,,,,,,,,,,,,,43.213581,2.366162,43.213581,2.366162,46bis Rue Alexandre Guiraud,46bis Rue Alexandre Guiraud 11000 Carcassonne,Carcassonne,11000,11
Ref_0009,,11,Carcassonne,,Espace Culturel Multimédia,,11000,,,11000 Carcassonne,Collectivité territoriale,,,,,,,,,,,,,Decembre 2019,,,,,,,,,,,,,,,,,,,,,,,,,,,,,43.20678,2.349411,43.20678,2.349411,Carcassonne,Carcassonne,Carcassonne,11000,11
Ref_0010,Actualisé (S.),11,Narbonne,,acti city - Information Jeunesse,,11100,13 BOULEVARD GAMBETTA,,13 BOULEVARD GAMBETTA 11100 Narbonne,Association,,,04 68 25 12 25,contact@acticity.com,https://acticity.com/nous-rencontrer/,,13h30-18h,13h30-18h,13h30-18h,13h30-18h,13h30-18h,,Octobre 2020,,,,,,,,,,,,,,,,,,,,,,,,,,,,,43.182781,3.007413,43.182781,3.007413,13 Boulevard Gambetta,13 Boulevard Gambetta 11100 Narbonne,Narbonne,11100,11
Ref_0011,,11,Carcassonne,,Logigames,,11000,25 boulevard de Varsovie,,25 boulevard de Varsovie 11000 Carcassonne,Entreprise,,,04 68 72 67 04,logigames2001@yahoo.fr,logigames.fr,,10h – 19h,10h – 19h,10h – 19h,10h – 19h,13h - 21h,,Decembre 2019,,,ORDM,,,,ACCN,,,,,,,,,,,,,,,,,,,ORDM-ACCN,,,43.213934,2.346802,43.213934,2.346802,25 Boulevard de Varsovie,25 Boulevard de Varsovie 11000 Carcassonne,Carcassonne,11000,11
Ref_0012,,11,Caves,,ATRIUM,,11510,,,11510 Caves,,,,,atriumcaves@gmail.com,,,,,,,,,Decembre 2019,,,,,,,,,,,,,,,,,,,,,,,,,,,,,42.93109,2.974247,42.93109,2.974247,Caves,Caves,Caves,11510,11
Ref_0013,,11,Davejean,,Maison de services au public POM'S de Davejean,,11330,rue de la poste,,rue de la poste 11330 Davejean,,MSAP,,04 68 70 09 47,poms.davejean@orange.fr,,,,,,,,,Decembre 2019,,,,,,,,,,,,,,,,,,,,,,,MSAP,,,,,,42.96053,2.606019,42.96053,2.606019,Rue de la Poste,Rue de la Poste 11330 Davejean,Davejean,11330,11
Ref_0014,,11,Fabrezan,,Mediatheque Milcom de Fabrezan,,11200,1 Avenue de la Mairie,,1 Avenue de la Mairie 11200 Fabrezan,Collectivité territoriale,Médiathèque,,04 68 43 71 92,,,,,,,,,,Decembre 2019,,,ORD,TP,,,,,,,,,,,,,,,,,,,,,,ORD,TP,,43.137194,2.70024,43.137194,2.70024,1 Avenue de la Mairie,1 Avenue de la Mairie 11200 Fabrezan,Fabrezan,11200,11
Ref_0015,,11,Lezignan,,Isis (epicerie solidaire),,11200,39 rue Lamartine,,39 rue Lamartine 11200 Lezignan,Association,,,,,,,,,,,,,Decembre 2019,,,,,,,,,,,,,,,,,,,,,,,,,,,,,43.202429,2.757544,43.202429,2.757544,39 Rue Lamartine,39 Rue Lamartine 11200 Lézignan-Corbières,Lézignan-Corbières,11200,11
Ref_0016,,11,Lezignan Corbières,,MJC Lezignan Corbières,,11200,25 Rue Marat,,25 Rue Marat 11200 Lezignan Corbières,Association,MJC,,04 68 27 03 34,mjc.lezignan.corbieres@wanadoo.fr,www.mjc-lezignan-corbieres.com,08h - 20h,08h - 20h,08h - 20h,08h - 20h,08h - 20h,08h - 13h,,Decembre 2019,,,ORD,TP,,,ACCDS,,,,COMP,TP-J-DE,,,,,,,,,,,TL-APTIC,,,ORD-ACCDS-COMP,TP-TP-J-DE,,43.199696,2.757916,43.199696,2.757916,25 Rue Marat,25 Rue Marat 11200 Lézignan-Corbières,Lézignan-Corbières,11200,11
Ref_0018,,11,Limoux,,France Services - Limouxin,MSA,11300,17 chemin Farinier,,17 chemin Farinier 11300 Limoux,,,,,,,8:30 - 12:00,8:30 - 12:00 / 13:30 - 17:00,8:30 - 12:00,8:30 - 12:00,8:30 - 12:00 / 13:30 - 16:30,-,,Janvier 2020,,,,,,,,,,,,,,,,,,,,,,,MFS,,,,,,43.057309,2.213259,43.057309,2.213259,17 Chemin Farinier,17 Chemin Farinier 11300 Limoux,Limoux,11300,11
Ref_0019,,11,Limoux,,TIERS LIEUX LIMOUX,,11300,7  rue du Cougaing,,7  rue du Cougaing 11300 Limoux,SCIC SARL,SCIC SAPIE,,468747330,tll@sapie.coop,http://sapie.coop,8h à 18h30,8h à 18h30,8h à 18h30,8h à 18h30,8h à 18h30,,,Novembre 20,,,W,J-DE-ALL,Pour également les indépendant-es  professionnel-les  salarié-es en télétravail Un espace de travail partagé composé d'un coworking et de bureaux fermés  avec connexion wifi et offrant un accès aux espaces collectifs (cuisine  jardin  salle de repos  salles de réunion et de formation ...) et à du matériel (imprimantes  scanner). Retrouver le détail des tarifs sur notre site : https://sapie.coop/site/coworking/ Ouvert du lundi au vendredi de 8h à 18h30 et le mardi jusqu'à 20h,,PRO,DE-ALL,Pour également les Salarié-es  professionnel-les  indépendant-es Offre de formations certifiantes sur les compétences numériques  éligibles au CPF.,,COMP,TP,,,ENT,TP,,,FL,TP,Mise à disposition de machines 3 D : découpe laser  fraiseuse CNC  imprimantes 3D et d'outils de bricolage .... FabLab ouvert le mercredi et le jeudi de 14h à18h30 Adhésion et abonnement : 30 €/an pour un accès gratuit à l'atelier et au petit outillage. Permis machines payants ( 180 €) délivrés sur place pour une utilisation autonome Repair café le jeudi tous les 15 jours,,TL-APTIC,Oui,,W-PRO-COMP-ENT-FL,J-DE-ALL-DE-ALL-TP-TP-TP,,43.055492,2.212835,43.055492,2.212835,7 Rue du Cougaing,7 Rue du Cougaing 11300 Limoux,Limoux,11300,11
Ref_0020,,11,Mouthoumet,,Centre social Adhco,,11330,23 rue de la gare,,23 rue de la gare 11330 Mouthoumet,,Centre social,,04 68 70 18 50,adhco.developpement@orange.fr,http://www.adhco.fr/,,,,,,,,Decembre 2019,,,,,,,,,,,,,,,,,,,,,,,,,,,,,42.960106,2.528877,42.960106,2.528877,23 Rue de la Gare,23 Rue de la Gare 11330 Mouthoumet,Mouthoumet,11330,11
Ref_0021,,11,Mouthoumet,,France Services - Massif de Mouthoumet,ADHCO CENTRE SOCIAL,11330,23 rue de la gare,,23 rue de la gare 11330 Mouthoumet,Association,,,04 68 70 18 50,adhco.developpement@orange.fr,,9:00 - 12:30 / 14:00 - 17:30,9:00 - 12:30 / 14:00 - 17:30,9:00 - 12:30 / 14:00 - 17:30,9:00 - 12:30 / 14:00 - 17:30,9:00 - 12:30 / 14:00 - 17:30,-,,Janvier 2020,,,,,,,,,,,,,,,,,,,,,,,MFS,,,,,,42.960106,2.528877,42.960106,2.528877,23 Rue de la Gare,23 Rue de la Gare 11330 Mouthoumet,Mouthoumet,11330,11
Ref_0022,,11,Narbonne,,Ecole régionale deuxieme chance,,11000,,,11000 Narbonne,,,,,,,,,,,,,,Decembre 2019,,,,,,,,,,,,,,,,,,,,,,,,,,,,,43.205257,2.401897,43.205257,2.401897,Route de Narbonne,Route de Narbonne 11000 Carcassonne,Carcassonne,11000,11
Ref_0023,,11,Narbonne,,Versus Internet Café,,11000,,,11000 Narbonne,,,,,info@versus.fr,,,,,,,,,Decembre 2019,,,,,,,,,,,,,,,,,,,,,,,,,,,,,43.205257,2.401897,43.205257,2.401897,Route de Narbonne,Route de Narbonne 11000 Carcassonne,Carcassonne,11000,11
Ref_0024,,11,Narbonne,,Maison de la l'Emploi et de la Formation,,11000,,,11000 Narbonne,,,,,multimedia@mef-narbonnaise.fr,,,,,,,,,Decembre 2019,,,,,,,,,,,,,,,,,,,,,,,,,,,,,43.205257,2.401897,43.205257,2.401897,Route de Narbonne,Route de Narbonne 11000 Carcassonne,Carcassonne,11000,11
Ref_0025,,11,Narbonne,,Centre social Aide Mutuelle à l'Insertion,,11000,24 boulevard Frédéric Mistral,,24 boulevard Frédéric Mistral 11000 Narbonne,,Centre social,,04 68 65 07 10,ami-aude@orange.fr,https://ami-aude.com/index.html,,,,,,,,Decembre 2019,TP,,SENS,,,,SENS,,,,,,,,,,,,,,,,,,,SENS-SENS,TP,,43.18616,3.002234,43.18616,3.002234,24 Boulevard Frederic Mistral,24 Boulevard Frederic Mistral 11100 Narbonne,Narbonne,11100,11
Ref_0026,,11,Narbonne,,Centre Social et Culturel Nelson MANDELA,,11000,4 Promenade Emilie Palomo,,4 Promenade Emilie Palomo 11000 Narbonne,,Centre social,,04 68 41 77 26,,https://www.csc-mandela.fr/,9 h - 12 h et 14 h - 18 h 00,9 h - 12 h et 14 h - 18 h 00,9 h - 12 h et 14 h - 18 h 00,9 h - 12 h et 14 h - 18 h 00,9 h - 12 h et 14 h - 18 h 00,,,Decembre 2019,,,COMP,,,,ACCDA,,,,ORD,,,,,,,,,,,,,,,COMP-ACCDA-ORD,,,43.187463,2.985839,43.187463,2.985839,4 Promenade Emilie Palomo,4 Promenade Emilie Palomo 11100 Narbonne,Narbonne,11100,11
Ref_0027,,11,Port la Nouvelle,,Le Lieu Ressources Littoral,,11210,222 rue de la Mairie,,222 rue de la Mairie 11210 Port la Nouvelle,,,,04.68.40.37.45,lri.littoral@cidff.fr,,,,,,,,,Decembre 2019,,,,,,,,,,,,,,,,,,,,,,,,,,,,,43.021057,3.042541,43.021057,3.042541,222 Rue de la Mairie,222 Rue de la Mairie 11210 Port-la-Nouvelle,Port-la-Nouvelle,11210,11
Ref_0028,,11,Narbonne,,France Services - PIMMS du Narbonnais,Union Nationale des PIMMS,11000,8 avenue du Maréchal Foch,,8 avenue du Maréchal Foch 11000 Narbonne,,PIMMS MSAP,,04 68 43 68 93,narbonne@pimms.org,,8:30 - 12:00 / 14:00 - 17:00,14:00 - 17:00,8:30 - 12:00 / 14:00 - 17:00,14:00 - 17:00,8:30 - 12:00 / 14:00 - 17:00,-,,Janvier 2020,,,,,,,,,,,,,,,,,,,,,,,MFS,,,,,,43.187225,3.005378,43.187225,3.005378,8 Avenue du Marechal Foch,8 Avenue du Marechal Foch 11100 Narbonne,Narbonne,11100,11
Ref_0029,,11,Narbonne,,INESS GRAND NARBONNE,C.C GRAND NARBONNE,11100,30 avenue Pompidor,,30 avenue Pompidor 11100 Narbonne,Collectivités,,,04 11 23 22 00,service.accueil-iness@legrandnarbonne.com,,,,,,,,,Decembre 2019,,,FL,,,,,,,,,,,,,,,,,,,,TL,,,FL,,,43.182245,2.979074,43.182245,2.979074,30 Avenue Pompidor,30 Avenue Pompidor 11100 Narbonne,Narbonne,11100,11
Ref_0030,,11,Saint Marcel sur Aude,,France Services - Centre Socioculturel et Familial ‘Les Passerelles’,,11120,107 avenue de Saint Pons,BP 8,107 avenue de Saint Pons 11120 Saint Marcel sur Aude,,Centre social,,04 30 16 67 15 ,lespasserelles@cs-les-passerelles.fr,www.cs-les-passerelles.fr,9h – 12h et 14h – 18h,9h - 12h,9h – 12h et 14h – 18h,9h - 12h,9h - 12h,,,Avril 2021,,,ORDM,,,,ACCDA,,,,ACCN,,,,SENS,,,,COMP,,,,MFS,,,ORDM-ACCDA-ACCN-SENS-COMP,,,43.251553,2.914701,43.251553,2.914701,107 Avenue de Saint Pons,107 Avenue de Saint Pons 11120 Saint-Marcel-sur-Aude,Saint-Marcel-sur-Aude,11120,11
Ref_0031,,11,Salles sur l'hers,,France Services - Centre social Energies de la Piège,Castelnaudary Lauragais Audois,11410,9 Rue des Rosiers,,9 Rue des Rosiers 11410 Salles sur l'hers,Association,MSAP,,04 68 60 38 98,,https://energiespiege.org/,8:30 - 12:00,8:30 - 12:00 / 13:30 - 17:00,8:30 - 12:00 / 13:30 - 17:00,8:30 - 12:00 / 13:30 - 17:00,8:30 - 12:00,-,,Janvier 2020,,,,,,,,,,,,,,,,,,,,,,,MFS,,,,,,43.293572,1.782541,43.293572,1.782541,9 Rue des Rosiers,9 Rue des Rosiers 11410 Salles-sur-l'Hers,Salles-sur-l'Hers,11410,11
Ref_0032,,11,Sigean,,France Services - PIMMS - Corbières Méditerranée,Union Nationale des PIMMS,11130,2 place de la Libération,,2 place de la Libération 11130 Sigean,,PIMMS,,04 68 33 51 12,sigean@pimms.org,,14:00 - 17:00,9:00 - 13:00 / 14:00 - 19:00,9:00 - 13:00 / 14:00 - 17:00,14:00 - 17:00,9:00 - 12:00,-,,Janvier 2020,,,,,,,,,,,,,,,,,,,,,,,MFS,,,,,,43.0288,2.979497,43.0288,2.979497,2 Place de la Liberation,2 Place de la Liberation 11130 Sigean,Sigean,11130,11
Ref_0033,,11,Thezan des corbieres,,Espace Public Numérique de la Contrée de Durban-Corbières,,11200,,,11200 Thezan des corbieres,,,,,developpementlocal@contree-durban-corbieres.fr,,,,,,,,,Decembre 2019,,,,,,,,,,,,,,,,,,,,,,,EPN,,,,,,43.080402,2.785587,43.080402,2.785587,Thézan-des-Corbières,Thézan-des-Corbières,Thézan-des-Corbières,11200,11
Ref_0034,,11,Argens-minervois,,Tiers-lieu « l’oppidum »,,11200,18 Rue de l’ancienne forge,,18 Rue de l’ancienne forge 11200 Argens-minervois,,,,06 41 28 46 74,epops-biodiversite@laposte.net,,,,,,,,,Decembre 2019,,,,,,,,,,,,,,,,,,,,,,,TL,,,,,,43.242061,2.766053,43.242061,2.766053,18 Rue de l'Ancienne Forge,18 Rue de l'Ancienne Forge 11200 Argens-Minervois,Argens-Minervois,11200,11
Ref_0035,,11,CARCASSONNE,,MEDIATHEQUE GRAIN D’SEL,Carcassonne Agglo,11000,Rue Fédou,,Rue Fédou 11000 CARCASSONNE,,Médiathèque,,04 68 10 35 50,mediatheque@caracassonne-agglo.fr,,,,,,,,,Decembre 2019,,,ORD,TP,,,,,,,,,,,,,,,,,,,,,,ORD,TP,,43.21348,2.357953,43.21348,2.357953,Rue Fédou,Rue Fédou 11000 Carcassonne,Carcassonne,11000,11
Ref_0036,,11,Chalabre,,Maison de Services au Public de Chalabre,La Poste,11230,Bureau de poste Avenue Auguste Cathala,,Bureau de poste Avenue Auguste Cathala 11230 Chalabre,,MSAP,,,msap.chalabre@laposte.fr,,,,,,,,,Decembre 2019,,,,,,,,,,,,,,,,,,,,,,,MSAP,,,,,,42.983793,2.007171,42.983793,2.007171,Avenue Auguste Cathala,Avenue Auguste Cathala 11230 Chalabre,Chalabre,11230,11
Ref_0037,,11,Axat,,Maison de Services au Public d’Axat,La Poste,11140,Bureau de poste 1 Place du Jardin public,,Bureau de poste 1 Place du Jardin public 11140 Axat,,MSAP,,,msap.axat@laposte.fr,,,,,,,,,Decembre 2019,,,,,,,,,,,,,,,,,,,,,,,MSAP,,,,,,42.800938,2.230193,42.800938,2.230193,1 Rue des Jardins,1 Rue des Jardins 11140 Axat,Axat,11140,11
Ref_0038,,11,Belcaire,,Maison de Services au Public de Belcaire,La Poste,11340,Bureau de poste 10 rue de la Poste,,Bureau de poste 10 rue de la Poste 11340 Belcaire,,MSAP,,04 68 20 32 76,msap.belcaire@laposte.fr,,,,,,,,,Decembre 2019,,,,,,,,,,,,,,,,,,,,,,,MSAP,,,,,,42.816606,1.960823,42.816606,1.960823,10 Rue de la Poste,10 Rue de la Poste 11340 Belcaire,Belcaire,11340,11
Ref_0039,,11,Belvèze-du-Razès,,Maison de Services au Public de Belvèze-du-Razès,La Poste,11240,Bureau de poste 27 allée des Platanes,,Bureau de poste 27 allée des Platanes 11240 Belvèze-du-Razès,,MSAP,,04 68 69 00 60,msap.belveze-du-razes@laposte.fr,,,,,,,,,Decembre 2019,,,,,,,,,,,,,,,,,,,,,,,MSAP,,,,,,43.125174,2.097443,43.125174,2.097443,27 Allée des Platanes,27 Allée des Platanes 11240 Belvèze-du-Razès,Belvèze-du-Razès,11240,11
Ref_0040,,11,Couiza,,Maison de Services au Public de Couiza,La Poste,11190,Bureau de poste 20 RN Pyrénées,,Bureau de poste 20 RN Pyrénées 11190 Couiza,,MSAP,,,msap.couiza@laposte.fr,,,,,,,,,Decembre 2019,,,,,,,,,,,,,,,,,,,,,,,MSAP,,,,,,42.941516,2.253501,42.941516,2.253501,Route des Pyrénées,Route des Pyrénées 11190 Couiza,Couiza,11190,11
Ref_0041,,11,Villasavary,,Maison de Services au Public de Villasavary,,11150,42 rue du Barry,,42 rue du Barry 11150 Villasavary,,MSAP,,04 68 11 93 95,mairie-de-villasavary@wanadoo.fr,,,,,,,,,Decembre 2019,,,,,,,,,,,,,,,,,,,,,,,MSAP,,,,,,43.219841,2.039813,43.219841,2.039813,42 Rue du Barry,42 Rue du Barry 11150 Villasavary,Villasavary,11150,11
Ref_0042,,11,Narbonne,,Maison des Potes,,11100,5 rue Baudin,,5 rue Baudin 11100 Narbonne,Association,,,04 68 65 10 55,mdpnarbonne11@gmail.com,,,,,,,,,Decembre 2019,,,,,,,,,,,,,,,,,,,,,,,,,,,,,43.1851,3.005788,43.1851,3.005788,5 Rue Baudin,5 Rue Baudin 11100 Narbonne,Narbonne,11100,11
Ref_0043,,11,Narbonne,,L'Arche,,11100,1 rue de l'Orbieu,,1 rue de l'Orbieu 11100 Narbonne,Association,,,04 68 41 03 65,arche.narbonne@gmail.com,,,,,,,,,Decembre 2019,,,,,,,,,,,,,,,,,,,,,,,,,,,,,43.183984,2.981618,43.183984,2.981618,Rue de l'Orbieu,Rue de l'Orbieu 11100 Narbonne,Narbonne,11100,11
Ref_0044,,11,Narbonne,,Centre Social et Culturel NELSON MANDELA,,11100,4 Promenade Emilie Palomo,,4 Promenade Emilie Palomo 11100 Narbonne,,Centre social,,04 68 41 77 26,centresocialnarbonne@gmail.com,,,,,,,,,Decembre 2019,,,,,,,,,,,,,,,,,,,,,,,,,,,,,43.187463,2.985839,43.187463,2.985839,4 Promenade Emilie Palomo,4 Promenade Emilie Palomo 11100 Narbonne,Narbonne,11100,11
Ref_0045,,11,Carcassonne,,Ecole de la seconde chance,,11000,82 Rue Barbacane,,82 Rue Barbacane 11000 Carcassonne,,,,04 68 25 56 74,,,,,,,,,,Decembre 2019,,,,,,,,,,,,,,,,,,,,,,,,,,,,,43.2084,2.360942,43.2084,2.360942,82 Rue Barbacane,82 Rue Barbacane 11000 Carcassonne,Carcassonne,11000,11
Ref_0046,,11,Narbonne,,MAISON DIGITALE DU CIDFF,,11100,37 avenue des Pyrénées,,37 avenue des Pyrénées 11100 Narbonne,,,,04.68.42.51.33,lri.narbonne@cidff.fr,,,,,,,,,Decembre 2019,,,,,,,,,,,,,,,,,,,,,,,,,,,,,43.182851,2.99778,43.182851,2.99778,37 Avenue des Pyrenees,37 Avenue des Pyrenees 11100 Narbonne,Narbonne,11100,11
Ref_0047,,11,Narbonne,,LA BULLE DU WEB (WAW-coworking),,11100,12 Boulevard Gambetta,,12 Boulevard Gambetta 11100 Narbonne,,,,09 82 38 35 49,hello@labulleweb.com,,,,,,,,,Decembre 2019,,,W,,,,,,,,,,,,,,,,,,,,,,,W,,,43.182401,3.007402,43.182401,3.007402,12 Boulevard Gambetta,12 Boulevard Gambetta 11100 Narbonne,Narbonne,11100,11
Ref_0048,,11,Narbonne,,Ecole de la seconde Chance,,11100,1 avenue gustave eiffel,,1 avenue gustave eiffel 11100 Narbonne,,,,04 68 40 34 12,crfp.verdegay@orange.fr,,,,,,,,,Decembre 2019,,,,,,,,,,,,,,,,,,,,,,,,,,,,,43.158696,2.978507,43.158696,2.978507,1 Avenue Gustave Eiffel,1 Avenue Gustave Eiffel 11100 Narbonne,Narbonne,11100,11
Ref_0049,,11,Caunes-Minervois,,Maison de services au public Caunes-Minervois,,11160,Allée des Raisins,,Allée des Raisins 11160 Caunes-Minervois,,MSAP,,,msap.caunes-minervois@laposte.fr,,,,,,,,,Decembre 2019,,,,,,,,,,,,,,,,,,,,,,,,,,,,,43.326931,2.523133,43.326931,2.523133,Allée des Raisins,Allée des Raisins 11160 Caunes-Minervois,Caunes-Minervois,11160,11
Ref_0050,,11,Durban-Corbières,,France Services - Durban-Corbières,,11360,6 Rue de la Mairie,,6 Rue de la Mairie 11360 Durban-Corbières,,MSAP,,04 68 45 89 00,durban-corbieres@france-services.gouv.fr,https://www.cohesion-territoires.gouv.fr/france-services,de 09h00 à 12h15 de 13h30 à 15h40,de 09h00 à 12h15 de 13h30 à 15h40,de 09h00 à 12h15 de 13h30 à 15h40,de 09h00 à 12h15 de 13h30 à 15h40,de 09h00 à 12h15 de 13h30 à 15h40,,,Juin 2021,,,,,,,,,,,,,,,,,,,,,,,MFS,,,,,,42.99612,2.81385,42.99612,2.81385,6 Rue de la Mairie,6 Rue de la Mairie 11360 Durban-Corbières,Durban-Corbières,11360,11
Ref_0051,,11,Palaja,,Médiathèque Municipale de Palaja,,11570,Rue Lô Moral,,Rue Lô Moral 11570 Palaja,,Médiathèque,,04 68 79 85 73,,,,,,,,,,Decembre 2019,,,,,,,,,,,,,,,,,,,,,,,,,,,,,43.174999,2.387838,43.174999,2.387838,Rue Lo Moral,Rue Lo Moral 11570 Palaja,Palaja,11570,11
Ref_0052,,11,Alzonne,,Médiathèque d'Alzonne,,11170,Parc Municipal,,Parc Municipal 11170 Alzonne,,Médiathèque,,04 68 76 33 02,mediatheque@carcassonne-agglo.fr,,,,,,,,,Decembre 2019,,,ORD,TP,,,,,,,,,,,,,,,,,,,,,,ORD,TP,,43.254495,2.175926,43.254495,2.175926,Rue du Parc,Rue du Parc 11170 Alzonne,Alzonne,11170,11
Ref_0053,,11,Capendu,,Maison de services au public - Piemont d'Alaric,,11700,2 Rue des Figuères,,2 Rue des Figuères 11700 Capendu,,MSAP,,04 68 79 87 01,msap@piemont-alaric.fr,,,,,,,,,Decembre 2019,,,,,,,,,,,,,,,,,,,,,,,MSAP,,,,,,43.184142,2.556949,43.184142,2.556949,2 Rue des Figuéres,2 Rue des Figuéres 11700 Capendu,Capendu,11700,11
Ref_0054,,11,Capendu,,Le Chai : Espace culturel,,11700,63 Avenue des Anciens Combattants,,63 Avenue des Anciens Combattants 11700 Capendu,Association,,,04 68 79 37 91,lechai@piemont-alaric.fr,,,,,,,,,Decembre 2019,,,,,,,,,,,,,,,,,,,,,,,,,,,,,43.187031,2.551455,43.187031,2.551455,63 Avenue des Anciens Combattants,63 Avenue des Anciens Combattants 11700 Capendu,Capendu,11700,11
Ref_0055,,11,Axat,,Mairie d'Axat,,11140,66 Route Départementale,,66 Route Départementale 11140 Axat,Collectivité territoriale,,,04 68 20 50 28,mairie.axat@axat.fr,,,,,,,,,Decembre 2019,,,,,,,,,,,,,,,,,,,,,,,,,,,,,42.80471,2.234378,42.80471,2.234378,66 Route Departementale,66 Route Departementale 11140 Axat,Axat,11140,11
Ref_0056,,11,Espezel,,Médiathèque du Pays de Sault,,11230,Grand'Rue,,Grand'Rue 11230 Espezel,,Médiathèque,,04 68 74 38 93,media.espezel@gmail.com,,,,,,,,,Decembre 2019,,,,,,,,,,,,,,,,,,,,,,,,,,,,,42.88729,2.045895,42.88729,2.045895,Route d’Espezel,Route d’Espezel 11230 Puivert,Puivert,11230,11
Ref_0057,,11,Chalabre,,Bibliothèque Municipale de Chalabre,,11230,4 Rue des Boulangers,,4 Rue des Boulangers 11230 Chalabre,,Bibliothèque,,04 68 69 49 06,epn@pyreneesaudoises.fr,,,,,,,,,Decembre 2019,,,ORD,TP,,,,,,,,,,,,,,,,,,,,,,ORD,TP,,42.98373,2.00626,42.98373,2.00626,4 Rue des Boulangers,4 Rue des Boulangers 11230 Chalabre,Chalabre,11230,11
Ref_0058,,11,Espéraza,,Médiathèque d'Espéraza,,11260,avenue de la gare,,avenue de la gare 11260 Espéraza,,Médiathèque,,04 68 74 13 51,bibliotheque_esperaza@Yahoo.fr,,,,,,,,,Decembre 2019,,,,,,,,,,,,,,,,,,,,,,,,,,,,,42.935189,2.219577,42.935189,2.219577,Avenue de la Gare,Avenue de la Gare 11260 Espéraza,Espéraza,11260,11
Ref_0059,,11,Villerouge-Termenès,,Maison de services au public POM'S de Villerouge-Termenès,,11330,8 Rue du Couvent,,8 Rue du Couvent 11330 Villerouge-Termenès,,MSAP,,04 68 70 00 16,poms.villerouge@orange.fr,,,,,,,,,Decembre 2019,,,,,,,,,,,,,,,,,,,,,,,MSAP,,,,,,43.007073,2.627163,43.007073,2.627163,8 Rue du Couvent,8 Rue du Couvent 11330 Villerouge-Termenès,Villerouge-Termenès,11330,11
Ref_0060,,11,Tuchan,,France Services - Tuchan,,11350,21 rue de la poste,,21 rue de la poste 11350 Tuchan,,MSAP,,04 68 42 42 41,Tuchan@france-services.gouv.fr1,https://www.cohesion-territoires.gouv.fr/france-services,de 09h00 à 12h00 de 13h30 à 15h30,de 09h00 à 12h00 de 13h30 à 15h30,de 09h00 à 12h00 de 13h30 à 15h30,de 09h00 à 12h00 de 13h30 à 15h30,de 09h00 à 12h00 de 13h30 à 15h30,de 09h00 à 11h30,,Juin 2021,,,,,,,,,,,,,,,,,,,,,,,MFS,,,,,,42.889375,2.718155,42.889375,2.718155,21 Rue de la Poste,21 Rue de la Poste 11350 Tuchan,Tuchan,11350,11
Ref_0061,,11,Trèbes,,Médiathèque de Trèbes,,11800,place de l'hôtel de ville,,place de l'hôtel de ville 11800 Trèbes,,Médiathèque,,04 68 78 51 33,bibliotheque-trebes@wanadoo.fr,,,,,,,,,Decembre 2019,,,,,,,,,,,,,,,,,,,,,,,,,,,,,43.209491,2.442856,43.209491,2.442856,Place de l'Hôtel de Ville,Place de l'Hôtel de Ville 11800 Trèbes,Trèbes,11800,11
Ref_0062,,11,Saint-Laurent de la Cabrerisse,,Médiathèque de Saint-Laurent de la Cabrerisse,,11220,22 avenue de narbonne,,22 avenue de narbonne 11220 Saint-Laurent de la Cabrerisse,,Médiathèque,,04 68 33 39 30,mediathequeslc11@gmail.com,https://www.st-laurent-de-la-cabrerisse.com/,,9h30-11h30 & 17h-18h,9h30-11h30 & 16h-18h,,9h30-11h30 & 16h-18h,9h30-11h30,,Février 2022,TP,,ORDM,TP,,,,,,,,,,,,,,,,,,,,oui,,ORDM,TP-TP,,43.08489,2.70105,43.08489,2.70105,22 Avenue de Narbonne,22 Avenue de Narbonne 11220 Saint-Laurent-de-la-Cabrerisse,Saint-Laurent-de-la-Cabrerisse,11220,11
Ref_0063,,11,Saint-André de Roquelongue,,Médiathèque Milcom de Saint-André de Roquelongue,,11200,120 rue des écoles,,120 rue des écoles 11200 Saint-André de Roquelongue,,Médiathèque,,04 68 45 17 56,mediatheque-st-andre@wanadoo.fr,,,15h-19h,,9h-12h et 17h-19h,,9h-12h,,Decembre 2019,,,ORD,TP,,,,,,,,,,,,,,,,,,,,,,ORD,TP,,43.11488,2.83818,43.11488,2.83818,Rue des Écoles,Rue des Écoles 11200 Saint-André-de-Roquelongue,Saint-André-de-Roquelongue,11200,11
Ref_0064,,11,Limoux,,Espace Public Numérique de la MLIDR11 Limoux,,11300,5 avenue de la gare,,5 avenue de la gare 11300 Limoux,,,,04 68 74 70 90,mli.dr11@wanadoo.fr,,,,,,,,,Decembre 2019,,,,,,,,,,,,,,,,,,,,,,,,,,,,,43.05643,2.221904,43.05643,2.221904,5 Avenue de la Gare,5 Avenue de la Gare 11300 Limoux,Limoux,11300,11
Ref_0065,,11,Laroque de Fa,,Maison de services au public POM'S Laroque de Fa,,11330,6 rue de la mairie,,6 rue de la mairie 11330 Laroque de Fa,,MSAP,,04 68 70 08 27,poms.laroquedefa@orange.fr,,,,,,,,,Decembre 2019,,,,,,,,,,,,,,,,,,,,,,,MSAP,,,,,,42.956356,2.56445,42.956356,2.56445,Rue de la Mairie,Rue de la Mairie 11330 Laroque-de-Fa,Laroque-de-Fa,11330,11
Ref_0066,,11,Lanet,,Maison de services au public POM'S de Lanet,,11330,Place de la mairie,,Place de la mairie 11330 Lanet,,MSAP,,04 68 70 02 34,poms.lanet@orange.fr,,,,,,,,,Decembre 2019,,,,,,,,,,,,,,,,,,,,,,,MSAP,,,,,,42.964345,2.492436,42.964345,2.492436,Place de la Mairie,Place de la Mairie 11330 Lanet,Lanet,11330,11
Ref_0067,,11,Mouthoumet,,ADHCo Centre Social,,11330,23 Rue de la Gare,,23 Rue de la Gare 11330 Mouthoumet,,Centre social,,04 68 70 18 50,adhco.developpement@orange.fr,,,,,,,,,Decembre 2019,,,,,,,,,,,,,,,,,,,,,,,,,,,,,42.960106,2.528877,42.960106,2.528877,23 Rue de la Gare,23 Rue de la Gare 11330 Mouthoumet,Mouthoumet,11330,11
Ref_0068,,11,Mouthoumet,,Maison de services au public POM'S de Mouthoumet,,11330,12 Rue de la Gare,,12 Rue de la Gare 11330 Mouthoumet,,MSAP,,04 68 42 12 95,poms.mouthoumet@orange.fr,,,,,,,,,Decembre 2019,,,,,,,,,,,,,,,,,,,,,,,MSAP,,,,,,42.960196,2.528048,42.960196,2.528048,12 Rue de la Gare,12 Rue de la Gare 11330 Mouthoumet,Mouthoumet,11330,11
Ref_0069,,11,Félines-Termenès,,Maison de services au public POM'S de Félines-Termenès,,11330,20 Avenue Termenès,,20 Avenue Termenès 11330 Félines-Termenès,,MSAP,,,poms.felines@orange.fr,,,,,,,,,Decembre 2019,,,,,,,,,,,,,,,,,,,,,,,MSAP,,,,,,42.989157,2.615493,42.989157,2.615493,20 Avenue du Termenès,20 Avenue du Termenès 11330 Félines-Termenès,Félines-Termenès,11330,11
Ref_0070,,11,Castelnaudary,,Mission Locale Ouest Audois,,11400,53 Boulevard Général Lapasset,,53 Boulevard Général Lapasset 11400 Castelnaudary,,Mission locale,,04 68 23 67,accueil.castelnaudary@mloa.fr,,,,,,,,,Decembre 2019,,,,,,,,,,,,,,,,,,,,,,,,,,,,,43.320823,1.950425,43.320823,1.950425,Boulevard Lapasset,Boulevard Lapasset 11400 Castelnaudary,Castelnaudary,11400,11
Ref_0071,,11,Castelnaudary,,Médiathèque Georges Canguilhem,,11400,8 Rue du Commandant Raynal,,8 Rue du Commandant Raynal 11400 Castelnaudary,,Médiathèque,,04 68 94 58 49,mediatheques@cccla.fr,,,,,,,,,Decembre 2019,,,ORD,TP,,,,,,,,,,,,,,,,,,,,,,ORD,TP,,43.320146,1.949409,43.320146,1.949409,8 Rue du Commandant Raynal,8 Rue du Commandant Raynal 11400 Castelnaudary,Castelnaudary,11400,11
Ref_0072,,11,Carcassonne,,Espace de co-oworking : L'Alpha'[R],CARCASSONNE AGGLO,11000,20 Rue Claude Chappe,,20 Rue Claude Chappe 11000 Carcassonne,,,,,rmine@carcassonne-agglo.fr,,,,,,,,,Decembre 2019,,,W,,,,,,,,,,,,,,,,,,,,,,,W,,,43.21177,2.324315,43.21177,2.324315,20 Rue Claude Chappe,20 Rue Claude Chappe 11000 Carcassonne,Carcassonne,11000,11
Ref_0073,,11,Carcassonne,,Ateliers Canopé,,11000,10 Boulevard Omer Sarraut,,10 Boulevard Omer Sarraut 11000 Carcassonne,Association,,,,contact.atelier11@reseau-canope.fr,,,,,,,,,Decembre 2019,,,,,,,,,,,,,,,,,,,,,,,,,,,,,43.216587,2.352707,43.216587,2.352707,10 Boulevard Omer Sarraut,10 Boulevard Omer Sarraut 11000 Carcassonne,Carcassonne,11000,11
Ref_0074,,11,Carcassonne,,Point Numérique,Préfecture de l'Aude,11000,52 Rue Jean Bringer,,52 Rue Jean Bringer 11000 Carcassonne,,,,04 68 10 27 00,,,,,,,,,,Janvier 2020,TP,,ORD,TP,,,,,,,,,,,,,,,,,,,,,,ORD,TP-TP,,43.214867,2.353742,43.214867,2.353742,52 Rue Jean Bringer,52 Rue Jean Bringer 11000 Carcassonne,Carcassonne,11000,11
Ref_0075,,11,Limoux,,Point Numérique,Préfecture de l'Aude,11300,12 rue du palais,,12 rue du palais 11300 Limoux,,,,04 68 31 03 50,,,,,,,,,,Janvier 2020,TP,,ORD,TP,,,,,,,,,,,,,,,,,,,,,,ORD,TP-TP,,43.054883,2.217804,43.054883,2.217804,12 Rue du Palais,12 Rue du Palais 11300 Limoux,Limoux,11300,11
Ref_0076,,11,Vignevieille,,Maison de services au public POM'S de Vignevieille,,11330,6 rue du lavoir,,6 rue du lavoir 11330 Vignevieille,,MSAP,,04 68 70 06 81,poms.vignevieille@orange.fr,,,,,,,,,Janvier 2020,,,,,,,,,,,,,,,,,,,,,,,,,,,,,43.005662,2.525325,43.005662,2.525325,Rue du Lavoir,Rue du Lavoir 11330 Vignevieille,Vignevieille,11330,11
Ref_0077,,11,Quillan,,Bibliothèque Municipale de Quillan,,11500,9 Place Raoul de Volontat,,9 Place Raoul de Volontat 11500 Quillan,,Bibliothèque,,04 68 31 15 46,epn@pyreneesaudoises.fr,,,,,,,,,Janvier 2020,,,ORD,TP,,,,,,,,,,,,,,,,,,,,,,ORD,TP,,42.875281,2.183676,42.875281,2.183676,9 Place Raoul de Volontat,9 Place Raoul de Volontat 11500 Quillan,Quillan,11500,11
Ref_0078,,11,Villepinte,,Médiathèque de Villepinte,,11150,12 boulevard gambetta,,12 boulevard gambetta 11150 Villepinte,,Médiathèque,,01 55 85 96 33,,,,,,,,,,Janvier 2020,TP,,ORD,,,,,,,,,,,,,,,,,,,,,,,ORD,TP,,43.281251,2.088425,43.281251,2.088425,12 Boulevard Gambetta,12 Boulevard Gambetta 11150 Villepinte,Villepinte,11150,11
Ref_0079,,11,Narbonne,,MEDIATHEQUE DU GRAND NARBONNE,Grand Narbonne,11100,9 Boulevard Frédéric Mistral,,9 Boulevard Frédéric Mistral 11100 Narbonne,,Médiathèque,,04 68 43 40 40,,,,,,,,,,Janvier 2020,,,ORD,TP,,,,,,,,,,,,,,,,,,,,,,ORD,TP,,43.187582,3.003669,43.187582,3.003669,Boulevard Frederic Mistral,Boulevard Frederic Mistral 11100 Narbonne,Narbonne,11100,11
Ref_0080,,11,LES ILHES CABARDES,,Maison de Services au Public du Haut Cabardès,,11380,Route de Mas-Cabardès,,Route de Mas-Cabardès 11380 LES ILHES CABARDES,,MSAP,,04 68 26 33 22,,,,,,,,,,Janvier 2020,,,,,,,,,,,,,,,,,,,,,,,,,,,,,43.363067,2.376678,43.363067,2.376678,Route de Mas-cabardès,Route de Mas-cabardès 11380 Les Ilhes,Les Ilhes,11380,11
Ref_0081,,11,Bram,,Pop Coworking,,11150,2 impasse de malepère,,2 impasse de malepère 11150 Bram,,,,06 67 32 58 10,,,,,,,,,,Janvier 2020,,,W,,,,,,,,,,,,,,,,,,,,,,,W,,,43.24197,2.092561,43.24197,2.092561,2 Impasse de la Malepère,2 Impasse de la Malepère 11150 Bram,Bram,11150,11
Ref_0082,,11,SALLES-SUR-L’HERS,,Cowork'in Ganguise,,11410,Mairie,,Mairie 11410 SALLES-SUR-L’HERS,,,,06 77 87 39 84,,,,,,,,,,Janvier 2020,,,W,,,,,,,,,,,,,,,,,,,,,,,W,,,43.292768,1.780235,43.292768,1.780235,Salles-sur-l'Hers,Salles-sur-l'Hers,Salles-sur-l'Hers,11410,11
Ref_0083,,11,Sainte-Valière,,Médiathèque Lo Gal,,11120,7 Place de l'Église,,7 Place de l'Église 11120 Sainte-Valière,,Médiathèque,,04 68 46 31 19,,,,,,,,,,Janvier 2020,,,,,,,,,,,,,,,,,,,,,,,,,,,,,43.272781,2.842222,43.272781,2.842222,7 Place de l'Eglise,7 Place de l'Eglise 11120 Sainte-Valière,Sainte-Valière,11120,11
Ref_0084,,11,Rouffiac-d’Aude,,Médiathèque,Carcassonne Agglo,11250,Allée des Marronniers,,Allée des Marronniers 11250 Rouffiac-d’Aude,,Médiathèque,,04 68 26 48 95,mediatheque@carcassonne-agglo.fr,,,,,,,,,Janvier 2020,,,ORD,TP,,,,,,,,,,,,,,,,,,,,,,ORD,TP,,43.128635,2.297558,43.128635,2.297558,Allée des Marronniers,Allée des Marronniers 11250 Rouffiac-d'Aude,Rouffiac-d'Aude,11250,11
Ref_0085,,11,CARCASSONNE,,LIEU RESSOURCES INSERTION,Ligue de l'enseignement,11000,16 rue Fédou,,16 rue Fédou 11000 CARCASSONNE,,,,04 68 25 99 88,lri@ligue11.org,,,,,,,,,Janvier 2020,,,,,,,,,,,,,,,,,,,,,,,,,,,,,43.213587,2.358548,43.213587,2.358548,16 Rue Fédou,16 Rue Fédou 11000 Carcassonne,Carcassonne,11000,11
Ref_0086,,11,Gruissan,,MJC de Gruissan,,11430,Montée du Pech,,Montée du Pech 11430 Gruissan,,,,04 68 49 61 87,,https://www.mjc-gruissan.com/,,,,,,,,Janvier 2020,,,,,,,,,,,,,,,,,,,,,,,,,,,,,43.106805,3.090296,43.106805,3.090296,Montee du Pech,Montee du Pech 11430 Gruissan,Gruissan,11430,11
Ref_0087,,11,Carcassonne,,MJC de Carcassonne,,11000,91 rue Aimé Ramond,,91 rue Aimé Ramond 11000 Carcassonne,,,,04 68 11 17 00,mjc@carca.org,http://carca.org/online/,,,,,,,,Janvier 2020,,,,,,,,,,,,,,,,,,,,,,,,,,,,,43.211839,2.347837,43.211839,2.347837,91 Rue Aime Ramond,91 Rue Aime Ramond 11000 Carcassonne,Carcassonne,11000,11
Ref_0088,,31,Arbas,,Bibliothèque municipale,Foyer rural,31160,Place de la Mairie,,Place de la Mairie 31160 Arbas,,Bibliothèque,,05 61 98 18 03,bibliotheque@arbas.fr,https://foyerruralarbas.wordpress.com/bibliotheque/,,,,,,,,Decembre 2019,,,ORD,TP,,,,,,,,,,,,,,,,,,,,,,ORD,TP,,42.995836,0.907489,42.995836,0.907489,Place de la Mairie,Place de la Mairie 31160 Arbas,Arbas,31160,31
Ref_0089,,31,Auterive,,Le foyer Auterive,,31190,1 place du Maréchal Leclerc,,1 place du Maréchal Leclerc 31190 Auterive,,Centre social,,,,centresocialauterive.fr,10h à 12h et de 14h à 18h,10h à 12h et de 14h à 18h,10h à 12h et de 14h à 18h,10h à 12h et de 14h à 18h,10h à 12h et de 14h à 18h,,,Decembre 2019,,,SENS,,,,ORDM,,,,ACCDA,,,,,,,,,,,,,,,SENS-ORDM-ACCDA,,,43.352866,1.477881,43.352866,1.477881,1 Place du Marechal Leclerc,1 Place du Marechal Leclerc 31190 Auterive,Auterive,31190,31
Ref_0090,,31,Auterive,,Médiathèque municipale,,31190,780 Route d'Espagne,,780 Route d'Espagne 31190 Auterive,,,,05 82 95 45 75,mediatheque@auterive-ville.fr,,,,,,,,,Decembre 2019,,,ORD,TP,adhésion,,,,,,,,,,,,,,,,,,,,,ORD,TP,,43.337717,1.480148,43.337717,1.480148,780 Route d'Espagne,780 Route d'Espagne 31190 Auterive,Auterive,31190,31
Ref_0091,,31,Auterive,,Communauté de communes de bassin auterivain,,31190,ZI Robert Lavigne RD 820,,ZI Robert Lavigne RD 820 31190 Auterive,Collectivité territoriale,,,05 61 50 99 00,,http://annuaire.auterive31.fr/front/index.php?membre=1687,,,,,,,,Decembre 2019,,,ACCDS,TP,Libre,,COMP,Emploi,Libre,,,,,,,,,,,,,,,,,ACCDS-COMP,TP-Emploi,,43.366215,1.4509,43.366215,1.4509,Zone Industrielle Lavigne,Zone Industrielle Lavigne 31190 Auterive,Auterive,31190,31
Ref_0092,,31,Auterive,,France Service - CC Bassin Auterivain,Communauté de communes,31190,Rd 820 ZI Robert Lavigne,,Rd 820 ZI Robert Lavigne 31190 Auterive,Collectivité territoriale,,,05 61 50 99 00,franceservices@ccba31.fr,,de 09h00 à 12h30 de 13h30 à 17h00,de 09h00 à 12h30 de 13h30 à 17h00,de 09h00 à 12h30 de 13h30 à 17h00,de 09h00 à 12h30 de 13h30 à 17h00,de 09h00 à 12h30 de 13h30 à 17h00,-,,Juin 2021,,,,,,,,,,,,,,,,,,,,,,,MFS,,,,,,43.366215,1.4509,43.366215,1.4509,Zone Industrielle Lavigne,Zone Industrielle Lavigne 31190 Auterive,Auterive,31190,31
Ref_0093,,31,Auterive,,TL ESPACE FIRMIN PONS,COMMUNE AUTERIVE,31190,780 route d'Espagne,,780 route d'Espagne 31190 Auterive,Collectivité territoriale,,,05.61.50.96.87,dgs@auterive-ville.fr,,,,,,,,,Janvier 2020,,,,,,,,,,,,,,,,,,,,,,,TL,,,,,,43.337717,1.480148,43.337717,1.480148,780 Route d'Espagne,780 Route d'Espagne 31190 Auterive,Auterive,31190,31
Ref_0094,,31,Bagnères de Luchon,,MJC,,31110,,,31110 Bagnères de Luchon,,,,,luchon@mjc-midi-pyrenees.com,,,,,,,,,Decembre 2019,,,,,,,,,,,,,,,,,,,,,,,,,,,,,42.791337,0.589937,42.791337,0.589937,Bagnères-de-Luchon,Bagnères-de-Luchon,Bagnères-de-Luchon,31110,31
Ref_0095,,31,Escalquens,,Le 100eme singe,,31750,13 avenue de la mairie,,13 avenue de la mairie 31750 Escalquens,Association,,,,lecentiemesinge@gmail.com,https://le100esinge.com/,,,,,,,,Février 2021,,,W,TP,Mise à disposition des espaces de travail partagé  pouvant devenir un facteur de réseaux professionnels,,ACCN,J DE ALL,L'activité est en développement  notre médiatrice numérique est formée à l'e-inclusion professionnelle pour la jeunesse et nous tendons vers l'accès au numérique pour le public des restos du coeur  nos voisins.,,FL,TP,Activité en co-portage avec Escale Bricole (https://escale-bricole.fr/),,COMP,J ALL,L'activité est en développement  notre médiatrice numérique est formée à l'e-inclusion professionnelle pour la jeunesse et nous tendons vers l'accès au numérique pour le public des restos du coeur.,L'activité est en développement  notre médiatrice numérique est formée à l'e-inclusion professionnelle pour la jeunesse et nous tendons vers l'accès au numérique pour le public des restos du coeur.,,,,,TL,oui,,W-ACCN-FL-COMP,TP-J DE ALL-TP-J ALL,,43.517589,1.55772,43.517589,1.55772,13 Avenue de la Mairie,13 Avenue de la Mairie 31750 Escalquens,Escalquens,31750,31
Ref_0096,,31,Bessieres,,France Services - Val Aïgo Antenne de Bessières,Communauté de communes Val'Aïgo,31660,26 Place du souvenir,,26 Place du souvenir 31660 Bessieres,Collectivité territoriale,,,,cias2@valaigo.fr,,9:00 - 12:30 / 14:00 - 17:00,9:00 - 12:30 / Sur RDV : après-midi,9:00 - 12:30 / Sur RDV : après-midi,9:00 - 12:30 / Sur RDV : après-midi,9:00 - 12:30 / Sur RDV : après-midi,-,,Juin 2021,,,,,,,,,,,,,,,,,,,,,,,MFS,,,,,,43.800751,1.606565,43.800751,1.606565,26 Place du Souvenir,26 Place du Souvenir 31660 Bessières,Bessières,31660,31
Ref_0097,,31,Blagnac,,Mairie de Blagnac,,31700,1 place des Arts,,1 place des Arts 31700 Blagnac,Collectivité territoriale,,,05 61 71 72 00,,,,,,,,,,Decembre 2019,,,,,,,,,,,,,,,,,,,,,,,,,,,,,43.635319,1.39838,43.635319,1.39838,Place des Arts,Place des Arts 31700 Blagnac,Blagnac,31700,31
Ref_0098,,31,Blagnac,,MJC DES ARTS BLAGNAC,,31700,2 rue de la Croix Blanche,,2 rue de la Croix Blanche 31700 Blagnac,Association,,,05 34 26 52 75,contact@mjc-arts-blagnac.com,https://www.mjc-arts-blagnac.com/,,,,,,,,Decembre 2019,,,,,,,,,,,,,,,,,,,,,,,TL,,,,,,43.63351,1.39861,43.63351,1.39861,2 Rue de la Croix Blanche,2 Rue de la Croix Blanche 31700 Blagnac,Blagnac,31700,31
Ref_0099,,31,Cazères,,Maison Pour tous,,31220,6 rue des Capucins,,6 rue des Capucins 31220 Cazères,,Centre social,,,,www.mptcazeres.fr,,,,,,,,Decembre 2019,TP,Libre,COMP,,,,ORDM,,,,,,,,,,,,,,,,,,,COMP-ORDM,TP,,43.20428,1.08388,43.20428,1.08388,6 Rue des Capucins,6 Rue des Capucins 31220 Cazères,Cazères,31220,31
Ref_0100,,31,Cintegabelle,,Foyer rural « La Gabela »,,31550,mairie,,mairie 31550 Cintegabelle,,Foyer rural,,,,,,,,,,,,Decembre 2019,TP,Libre,COMP,,,,,,,,,,,,,,,,,,,,,,,COMP,TP,,43.318449,1.536907,43.318449,1.536907,Pinie,Pinie 31550 Cintegabelle,Cintegabelle,31550,31
Ref_0101,,31,Clarac,,foyer rural Clarac,,31210,Chemin de Sainte Anne,,Chemin de Sainte Anne 31210 Clarac,Association,Foyer rural,,05 61 89 70 64,foyer-rural-clarac@orange.fr,http://www.foyerruralclarac.org/accueil.html,,,,,,,,Decembre 2019,,,COMP,TP,Libre,,,,,,,,,,,,,,,,,,,,,COMP,TP,,43.097976,0.62331,43.097976,0.62331,Chemin de Sainte Anne,Chemin de Sainte Anne 31210 Clarac,Clarac,31210,31
Ref_0102,,31,Colomiers,,Mairie,,31770,,,31770 Colomiers,Collectivité territoriale,,,,,,,,,,,,,Decembre 2019,,,,,,,,,,,,,,,,,,,,,,,,,,,,,43.609804,1.32962,43.609804,1.32962,Colomiers,Colomiers,Colomiers,31770,31
Ref_0103,,31,Colomiers,,CCAS,,31770,18 PLACE DU LANGUEDOC,,18 PLACE DU LANGUEDOC 31770 Colomiers,Collectivité territoriale,,,,,,,,,,,,,Decembre 2019,,,,,,,,,,,,,,,,,,,,,,,,,,,,,43.6109,1.33016,43.6109,1.33016,18 Place du Languedoc,18 Place du Languedoc 31770 Colomiers,Colomiers,31770,31
Ref_0104,,31,Colomiers,,LA MIJOTEUSE,COMMUNE DE COLOMIERS,31770,Place Joseph Verseille,,Place Joseph Verseille 31770 Colomiers,Collectivité territoriale,,,06.38.50.65.31.,christine.gouaux@mairie-colomiers.fr,,,,,,,,,Decembre 2019,,,,,,,,,,,,,,,,,,,,,,,TL,,,,,,43.609555,1.339555,43.609555,1.339555,Place Joseph Verseille,Place Joseph Verseille 31770 Colomiers,Colomiers,31770,31
Ref_0105,,31,Colomiers,,Point Rencontres Chomeurs Precaires (PRCP),,31770,2 Allée du Vignemale,,2 Allée du Vignemale 31770 Colomiers,,,,,,,,,,,,,,Decembre 2019,,,,,,,,,,,,,,,,,,,,,,,APTIC,,,,,,43.60514,1.333515,43.60514,1.333515,2 Allée du Vignemale,2 Allée du Vignemale 31770 Colomiers,Colomiers,31770,31
Ref_0106,,31,Fenouillet,,Association Femmes du Monde,,31150,,,31150 Fenouillet,Association,Centre social,,05 31 48 50 99 06 27 20 24 70,asso.femmesdumonde@gmail.com,http://femmes-du-monde-31.blogspot.fr/,,,,,,,,Decembre 2019,,,,,,,,,,,,,,,,,,,,,,,,,,,,,43.684445,1.391525,43.684445,1.391525,Fenouillet,Fenouillet,Fenouillet,31150,31
Ref_0107,,31,La Salvetat Saint Gilles,,centre social F Chopin,,31880,Rue Frédéric Chopin,,Rue Frédéric Chopin 31880 La Salvetat Saint Gilles,,Centre social,,05.34.52.70.96,,,,,,,,,,Decembre 2019,,,COMP,SEN,,,,,,,,,,,,,,,,,,,,,,COMP,SEN,,43.575575,1.273254,43.575575,1.273254,Avenue Frederic Chopin,Avenue Frederic Chopin 31880 La Salvetat-Saint-Gilles,La Salvetat-Saint-Gilles,31880,31
Ref_0108,,31,Labège,,ASSOCIATION IOT VALLEY,,31670,425 rue Jean Rostand,,425 rue Jean Rostand 31670 Labège,Association,,,,bertran@iot-valley.fr,,,,,,,,,Decembre 2019,,,,,,,,,,,,,,,,,,,,,,,TL,,,,,,43.543887,1.511505,43.543887,1.511505,425 Rue Jean Rostand,425 Rue Jean Rostand 31670 Labège,Labège,31670,31
Ref_0109,,31,Escalquens,,Maison de la Solidarité,,31670,Mairie d'Escalquens Place François Mitterrand,,Mairie d'Escalquens Place François Mitterrand 31670 Escalquens,,Centre social,,05 62 71 56 75,centre.social@escalquens.fr,www.escalquens.fr,14h-18h,8h30-12h et 14h-18h,8h30-12h et 14h-18h,9h-12h et 14h-19h,8h30-12h et 14h-18h,,,Juin 2021,,,ORDM,,,,ENT,SEN,Ouvert aux adhérents du centre social - Sur inscription  priorité aux Escalquinois.  Tous les mercredis de 14h à 17h hors vacances scolaires,Mathilde LABETAA,ACCDS,TP,Démarche simple en ligne liée à un droit (aller chercher une attestation sur son espace personnel  transmettre une pièce jointe  faire une déclaration trimestrielle...),,,,,,,,,,,,,ORDM-ENT-ACCDS,SEN-TP,,43.517864,1.558979,43.517864,1.558979,Place Francois Mitterrand,Place Francois Mitterrand 31750 Escalquens,Escalquens,31750,31
Ref_0110,,31,Lagardelle-sur-Lèze,,EVOLFABLAB,,31870,289 route de la fontannasse,,289 route de la fontannasse 31870 Lagardelle-sur-Lèze,Association,,,06 20 22 11 48,infoaleze@gmail.com,,,,,,,,,Decembre 2019,,,FL,,,,,,,,,,,,,,,,,,,,TL,,,FL,,,43.414727,1.396756,43.414727,1.396756,289 Route de la Fontanasse,289 Route de la Fontanasse 31870 Lagardelle-sur-Lèze,Lagardelle-sur-Lèze,31870,31
Ref_0111,,31,Lagardelle-sur-Lèze,,Mairie,,31870,,,31870 Lagardelle-sur-Lèze,,,,,,,,,,,,,,Decembre 2019,TP,Libre,SENS,,,,FL,,,,,,,,,,,,,,,,,,,SENS-FL,TP,,43.412969,1.392284,43.412969,1.392284,Lagardelle-sur-Lèze,Lagardelle-sur-Lèze,Lagardelle-sur-Lèze,31870,31
Ref_0112,,31,Lagardelle-sur-Lèze,,Médiathèque municipale,,31870,3 Château de Vignaou,,3 Château de Vignaou 31870 Lagardelle-sur-Lèze,,,,,bm.lagardelle@wanadoo.fr,,,15h00 - 18h00,09h30 - 12h30 et 15h00 - 18h00,15h00 - 18h00,09h30 - 12h30,09h30 - 12h30,,Decembre 2019,,,ORD,ALL,,,,,,,,,,,,,,,,,,,,,,ORD,ALL,,43.414559,1.388024,43.414559,1.388024,3 Rue du Chateau du Vignaou,3 Rue du Chateau du Vignaou 31870 Lagardelle-sur-Lèze,Lagardelle-sur-Lèze,31870,31
Ref_0113,,31,Le Fauga,,Desir informatique faugatien,,31410,1 Place de la HALLE,,1 Place de la HALLE 31410 Le Fauga,Association,,,,,,,,,,,,,Decembre 2019,,,,,,,,,,,,,,,,,,,,,,,,,,,,,43.39619,1.295885,43.39619,1.295885,1 Place de la Halle,1 Place de la Halle 31410 Le Fauga,Le Fauga,31410,31
Ref_0114,,31,Le Fauga,,mairie La Fauga,,31410,1 Place de la Halle,,1 Place de la Halle 31410 Le Fauga,Collectivité territoriale,,,,mairie@lefauga.fr,,,,,,,,,Decembre 2019,,,,,,,,,,,,,,,,,,,,,,,,,,,,,43.39619,1.295885,43.39619,1.295885,1 Place de la Halle,1 Place de la Halle 31410 Le Fauga,Le Fauga,31410,31
Ref_0115,,31,Lespinasse,,PCWORKS31,,31150,2 Allée Pierre-paul Riquet,,2 Allée Pierre-paul Riquet 31150 Lespinasse,,,,0954 882 757,,https://pcworks31.com/,,,,,,,,Octobre 2020,,,W,,,,COMP,,,,PRO,,,,,,,,,,,,APTIC,,,W-COMP-PRO,,,43.707551,1.385597,43.707551,1.385597,2 Allée Pierre-Paul Riquet,2 Allée Pierre-Paul Riquet 31150 Lespinasse,Lespinasse,31150,31
Ref_0116,,31,Lherm,,C N S Communications,,31600,9 Rue de la Foret,,9 Rue de la Foret 31600 Lherm,,,,,,,,,,,,,,Octobre 2020,,,,,,,,,,,,,,,,,,,,,,,APTIC,,,,,,43.427296,1.211384,43.427296,1.211384,9 Rue de la Foret,9 Rue de la Foret 31600 Lherm,Lherm,31600,31
Ref_0117,,31,Léguevin,,centre social La Maison des Quartiers,,31490,49 rue Pipet,,49 rue Pipet 31490 Léguevin,,Centre social,,05 61 06 90 13,centre-social.leguevin@save-touch.org,http://www.ville-leguevin.fr/maison_des_quartiers%20(2).aspx,,,,,,,,Decembre 2019,,,,,,,,,,,,,,,,,,,,,,,,,,,,,43.600721,1.234607,43.600721,1.234607,49 Rue Pipet,49 Rue Pipet 31490 Léguevin,Léguevin,31490,31
Ref_0118,,31,Lévignac,,centre social Vallée de la Save,Communauté de communes de la Save au Touch,31530,5 rue de la Mairie,,5 rue de la Mairie 31530 Lévignac,,Centre social,,05 62 13 80 20,centre-social.valleesave@save-touch.org,https://www.mairie-levignac.com/centre-social,9h00 - 12h00 et de 14h00 à 17h30,9h00 - 12h00 et de 14h00 à 17h30,9h00 - 12h00 et de 14h00 à 17h30,9h00 - 12h00 et de 14h00 à 17h30,9h00 – 12h00,,,Octobre 2020,,,SENS,TP,Libre,,,,,,,,,,,,,,,,,,,,,SENS,TP,,43.666663,1.194417,43.666663,1.194417,5 Rue de la Mairie,5 Rue de la Mairie 31530 Lévignac,Lévignac,31530,31
Ref_0119,,31,Merville,,Centre Social de Merville / CCAS,,31330,50 rue du 19 mars 1962,,50 rue du 19 mars 1962 31330 Merville,,Centre social,,05 62 13 40 95,,,,,,,,,,Decembre 2019,,,ORD,TP,Libre,,ORD,ALL,Libre,,COMP,TP,Libre,,SENS,,,,,,,,,,,ORD-ORD-COMP-SENS,TP-ALL-TP,,43.722019,1.298805,43.722019,1.298805,50 Rue du 19 Mars 1962,50 Rue du 19 Mars 1962 31330 Merville,Merville,31330,31
Ref_0120,,31,Miremont,,Médiathèque,,31190,Place Carreties,,Place Carreties 31190 Miremont,,,,05 61 50 67 05,biblio.miremont@wanadoo.fr,,,,,,,,,Decembre 2019,,,ORD,Habitants,,,,,,,,,,,,,,,,,,,,,,ORD,Habitants,,43.370489,1.416036,43.370489,1.416036,Place Carretier,Place Carretier 31190 Miremont,Miremont,31190,31
Ref_0121,,31,Montbrun Bocage,,L'ordinateur facile,,31310,3 rue du Rebarat,,3 rue du Rebarat 31310 Montbrun Bocage,Association,,,06 51 91 40 96,lordinateurfacile@gmail.com,http://www.lordinateurfacile.fr/,9 h - 14 h,9 h - 14 h,9 h - 14 h,9 h - 14 h,9 h - 14 h,9 h - 14 h,,Decembre 2019,,,ORDM,,,,ACCDS,,,,FL,,,,,,,,,,,,,,,ORDM-ACCDS-FL,,,43.127457,1.267767,43.127457,1.267767,3 Rue du Rebarat,3 Rue du Rebarat 31310 Montbrun-Bocage,Montbrun-Bocage,31310,31
Ref_0122,,31,Montrejeau,,SARAPP Montrejeau,,31210,,,31210 Montrejeau,,,,05.61.94.59.82,,,,,,,,,,Decembre 2019,,,,,,,,,,,,,,,,,,,,,,,,,,,,,43.087694,0.557446,43.087694,0.557446,Montréjeau,Montréjeau,Montréjeau,31210,31
Ref_0123,,31,Nailloux,,France Services - CC Terres du Lauragais,Communauté de communes,31560,1 rue de la république,,1 rue de la république 31560 Nailloux,Collectivité territoriale,,,06 60 94 95 34,franceservices.sud@terres-du-lauragais.fr,https://www.cohesion-territoires.gouv.fr/france-services,13:30 - 17:00,13:30 - 17:00,de 09h00 à 12h30 de 13h30 à 17h00,13:30 - 17:00,de 09h00 à 12h30 de 13h30 à 17h00,-,,Juin 2021,,,,,,,,,,,,,,,,,,,,,,,MFS,,,,,,43.356585,1.623418,43.356585,1.623418,1 Rue de la République,1 Rue de la République 31560 Nailloux,Nailloux,31560,31
Ref_0124,,31,Pibrac,,Maison des Initiatives Sociales et Culturelles,,31820,1 Impasse de la Gare,,1 Impasse de la Gare 31820 Pibrac,,Centre social,,,,,,,,,,,,Decembre 2019,,,ORD,,,,COMP,,,,,,,,,,,,,,,,,,,ORD-COMP,,,43.621325,1.289239,43.621325,1.289239,Impasse de la Gare,Impasse de la Gare 31820 Pibrac,Pibrac,31820,31
Ref_0125,,31,Plaisance du Touch,,centre social Sesame,,31830,1 rue des Tilleuls,,1 rue des Tilleuls 31830 Plaisance du Touch,,Centre social,,05 62 13 52 57,centre.sesame@save-touch.org,https://www.plaisancedutouch.fr/le-centre-sesame,,,,,,,,Octobre 2020,,,COMP,SEN,inscription,,,,,,,,,,,,,,,,,,,,,COMP,SEN,,43.567961,1.296663,43.567961,1.296663,1 Rue des Tilleuls,1 Rue des Tilleuls 31830 Plaisance-du-Touch,Plaisance-du-Touch,31830,31
Ref_0126,,31,Puydaniel,,Solidarité Numérique CCAS,ASSOCIATION PLANETE SCIENCES OCCITANIE,31190,8 avenue des Pyrénées,,8 avenue des Pyrénées 31190 Puydaniel,Collectivité territoriale,,,05 61 50 72 44,mairiepuydaniel@wanadoo.fr,https://www.mairie-puydaniel.fr/,,,,,,,,Decembre 2019,TP,Libre,ORDM,,,,ACCN,,,,SENS,,,,,,,,,,,,,,,ORDM-ACCN-SENS,TP,,43.337135,1.429501,43.337135,1.429501,8 Avenue des Pyrenees,8 Avenue des Pyrenees 31190 Puydaniel,Puydaniel,31190,31
Ref_0127,,31,Ramonville,,"Le PIC : ""Projet Internet et Citoyenneté""",,31520,14 chemin pouciquot,,14 chemin pouciquot 31520 Ramonville,Association,,,06 76 08 88 39 ou 06 01 22 32 91,,https://www.le-pic.org/,,,,,,,,Octobre 2020,TP,,COMP,TP,sur inscription. Les samedi de 14h à 18h. thèmes des ateliers sur : https://www.le-pic.org/spip.php?rubrique121,,,,,,,,,,,,,,,,,,,,,COMP,TP-TP,,43.551908,1.472598,43.551908,1.472598,14 Chemin Pouciquot,14 Chemin Pouciquot 31520 Ramonville-Saint-Agne,Ramonville-Saint-Agne,31520,31
Ref_0128,,31,Ramonville,,Le F@bRiquet,,31520,14 rue Hermes,,14 rue Hermes 31520 Ramonville,Association,,,05 61 73 10 22,ariane.rudelle@planete-sciences.org,http://www.fabriquet.fr/web/,,14h-22h,13h-18h,Sur RDV,13h-18h,13h-20h,,Decembre 2019,,,FL,,,,,,,,,,,,,,,,,,,,TL,,,FL,,,43.550024,1.485155,43.550024,1.485155,14 Rue Hermes,14 Rue Hermes 31520 Ramonville-Saint-Agne,Ramonville-Saint-Agne,31520,31
Ref_0129,,31,Rieumes,,France Services - CC Cœur de Garonne,Communauté de Communes Cœur de Garonne,31370,2 Place du marché à la volaille,,2 Place du marché à la volaille 31370 Rieumes,Collectivité territoriale,,,09 67 51 89 96,franceservices@cc-coeurdegaronne.fr,https://www.cohesion-territoires.gouv.fr/france-services,de 14h00 à 17h00,de 08h30 à 12h30 de 14h00 à 17h00,de 08h30 à 12h30,de 08h30 à 12h30 de 14h00 à 17h00,de 08h30 à 12h30,-,,Juin 2021,,,,,,,,,,,,,,,,,,,,,,,MFS,,,,,,43.412778,1.119277,43.412778,1.119277,2 Place du Marche a la Volaille,2 Place du Marche a la Volaille 31370 Rieumes,Rieumes,31370,31
Ref_0130,,31,Toulouse,,Alliances et Cultures MUP,,31000,14 chemin du miral,,14 chemin du miral 31000 Toulouse,Association,,,05 61 44 67 63,centresocial.mup@alliancesetcultures.org,http://www.alliancesetcultures.org,,,9h - 12h30, 9h - 12h30 et 14h - 17h,9h - 12h30,,,Mars 2021,TP,Gratuit,ORDM ,TP,,,,,,,,,,,,,,,,,,,,,,ORDM ,TP-TP,,43.613708,1.445647,43.613708,1.445647,14 Rue du Printemps,14 Rue du Printemps 31000 Toulouse,Toulouse,31000,31
Ref_0131,,31,Saint Gaudens,,MJC / cyber-base du Saint-Gaudinois,,31800,1 place du maréchal juin,,1 place du maréchal juin 31800 Saint Gaudens,Association,,,05 61 94 66 45,info@mjc-st-gaudens.org,www.mjc-st-gaudens.org,,,,,,,,Octobre 2020,,,ORDM,,,,COMP,,,,,,,,,,,,,,,,APTIC,,,ORDM-COMP,,,43.109176,0.726436,43.109176,0.726436,1 Place du Marechal Juin,1 Place du Marechal Juin 31800 Saint-Gaudens,Saint-Gaudens,31800,31
Ref_0132,,31,Saint Gaudens,,Club de prévention Saint Gaudens,Conseil Départemental,31800,5 rue de la République,,5 rue de la République 31800 Saint Gaudens,Collectivité territoriale,club de prévention,,05 61 95 10 66,clubpreventionsaintgaudens@cd31.fr,https://www.haute-garonne.fr/service/le-club-de-prevention-jeunesse-de-saint-gaudens,,,,,,,,Octobre 2020,J,,ACCDS,,,,ACCDA,,,,SENS,J,Promeneurs du net,,,,,,,,,,,,,ACCDS-ACCDA-SENS,J-J,,43.107605,0.721335,43.107605,0.721335,5 Rue de la République,5 Rue de la République 31800 Saint-Gaudens,Saint-Gaudens,31800,31
Ref_0133,,31,Saint Gaudens,,TIERS LIEUX EN COMMINGES,MAISON DE L AVENIR COMMINGES PYRENEES,31800,1 place Maréchal Juin,,1 place Maréchal Juin 31800 Saint Gaudens,Association,,,05.61.94.66.45,julie@maisondelavenir.eu,,,,,,,,,Octobre 2020,,,,,,,,,,,,,,,,,,,,,,,TL,,,,,,43.109176,0.726436,43.109176,0.726436,1 Place du Marechal Juin,1 Place du Marechal Juin 31800 Saint-Gaudens,Saint-Gaudens,31800,31
Ref_0134,,31,Saint Gaudens,,Cyber-base,,31800,1 Place du Marechal Juin,,1 Place du Marechal Juin 31800 Saint Gaudens,,,,,,,,,,,,,,Octobre 2020,,,,,,,,,,,,,,,,,,,,,,,APTIC,,,,,,43.109176,0.726436,43.109176,0.726436,1 Place du Marechal Juin,1 Place du Marechal Juin 31800 Saint-Gaudens,Saint-Gaudens,31800,31
Ref_0135,,31,Saint Orens,,CCAS,,31650,Place de la fraternité 2 Rosa Parks,,Place de la fraternité 2 Rosa Parks 31650 Saint Orens,Collectivité territoriale,,,05 61 39 54 05,,https://www.ville-saint-orens.fr/cohesion-sociale/ccas,,,,,,,,Octobre 2020,TP,,ACCDS,,,,ACCDA,,,,,,,,,,,,,,,,,,,ACCDS-ACCDA,TP,,43.550527,1.538481,43.550527,1.538481,Rue Rosa Parks,Rue Rosa Parks 31650 Saint-Orens-de-Gameville,Saint-Orens-de-Gameville,31650,31
Ref_0136,,31,Saint Orens de Gameville,,Espace Pour Tous,,31650,2 Rue des Muriers,,2 Rue des Muriers 31650 Saint Orens de Gameville,Collectivité territoriale,Centre social,,05 61 39 54 03,,https://www.ville-saint-orens.fr/vie-de-la-cite-sports-culture/l-espace-pour-tous/248-l-espace-pour-tous,,,,,,,,Decembre 2019,TP,,COMP,,,,,,,,,,,,,,,,,,,,,,,COMP,TP,,43.550233,1.538071,43.550233,1.538071,2 Rue des Mûriers,2 Rue des Mûriers 31650 Saint-Orens-de-Gameville,Saint-Orens-de-Gameville,31650,31
Ref_0137,,31,Saint-Jean,,Mairie,COMMUNE DE ST JEAN,31240,33 ter route d'Albi,,33 ter route d'Albi 31240 Saint-Jean,Collectivité territoriale,,,05 32 09 68 37,sylvie.blanc@mairie-saintjean.fr,https://www.mairie-saintjean.fr/,,,,,,,,Octobre 2020,,,SENS,J,Promeneurs du net,,,,,,,,,,,,,,,,,,TL,,,SENS,J,,43.664951,1.50452,43.664951,1.50452,33ter Route d'Albi,33ter Route d'Albi 31240 Saint-Jean,Saint-Jean,31240,31
Ref_0138,,31,Saint-Jean,,MJC Les Granges / Saint Jean,,31240,33 route d'Albi,ter,33 route d'Albi 31240 Saint-Jean,,,,05 32 09 67 50,,https://www.mairie-saintjean.fr/les-granges/,,,,,,,,Decembre 2019,,,ORDM,,,,COMP,,,,FL,,,,,,,,,,,,,,,ORDM-COMP-FL,,,43.664503,1.50383,43.664503,1.50383,33 Route d'Albi,33 Route d'Albi 31240 Saint-Jean,Saint-Jean,31240,31
Ref_0139,,31,Saint-Jean,,Centre Social Les Granges / Saint Jean,,31240,33 route d'Albi,ter,33 route d'Albi 31240 Saint-Jean,,Centre social,,05 32 09 68 37,,https://www.mairie-saintjean.fr/les-granges/,,,,,,,,Decembre 2019,,,ACCN,,,,SENS,,,,SENS,,,,,,,,,,,,,,,ACCN-SENS-SENS,,,43.664503,1.50383,43.664503,1.50383,33 Route d'Albi,33 Route d'Albi 31240 Saint-Jean,Saint-Jean,31240,31
Ref_0140,,31,Saint-Jean,,CREATEC - LES GRANGES,ASSOCIATION MJC SAINT JEAN,31240,33 terue route d'Albi,,33 terue route d'Albi 31240 Saint-Jean,Association,,,,direction@mjcstj31.fr,,,,,,,,,Decembre 2019,,,,,,,,,,,,,,,,,,,,,,,TL,,,,,,43.664503,1.50383,43.664503,1.50383,33 Route d'Albi,33 Route d'Albi 31240 Saint-Jean,Saint-Jean,31240,31
Ref_0141,,31,Saint-Lys,,MJC-Centre social,,31470,1 Rue des Glycines,,1 Rue des Glycines 31470 Saint-Lys,,Centre social,,05 34 48 56 91,centresocial@saint-lys.fr,,,,,,,,,Decembre 2019,,,COMP,,,,,,,,,,,,,,,,,,,,,,,COMP,,,43.511462,1.17435,43.511462,1.17435,1 Rue des Glycines,1 Rue des Glycines 31470 Saint-Lys,Saint-Lys,31470,31
Ref_0142,,31,Toulouse,,Médiathèque Grand M,,31000,37 avenue de la Reynerie,,37 avenue de la Reynerie 31000 Toulouse,Collectivité territoriale,Bibliothèque,,05 81 91 79 40,,www.bibliotheque.toulouse.fr,,,,,,,,Mars 2021,TP,,ORD,Impression et scan (10 centimes)  carte internet gratuite,,,ACCN,,,,,,,,,,,,,,,,,,,ORD-ACCN,TP-Impression et scan (10 centimes)  carte internet gratuite,,43.567208,1.400818,43.567208,1.400818,37 Avenue de Reynerie,37 Avenue de Reynerie 31100 Toulouse,Toulouse,31100,31
Ref_0143,,31,Toulouse,,Combustible numérique,,31200,Atelier TA – 32 rue des Jumeaux,,Atelier TA – 32 rue des Jumeaux 31200 Toulouse,Association,Intervention itinérante  possible auprès de structures ou collectivités,,06 52 06 14 15,contact@combustible.fr,http://combustible.fr/,,,,,,,,Decembre 2019,,,COMP,TP-ETR-SEN-J,,,SENS,TP-ETR-SEN-J,,,,,,,,,,,,,,,APTIC,,,COMP-SENS,TP-ETR-SEN-J-TP-ETR-SEN-J,,43.615492,1.45039,43.615492,1.45039,Rue des Jumeaux,Rue des Jumeaux 31200 Toulouse,Toulouse,31200,31
Ref_0144,,31,Toulouse,,Trajectoire vers l'emploi,,31000,18 rue des couteliers,,18 rue des couteliers 31000 Toulouse,Association,Association,,05 34 41 15 99,asso.trajectoire@wanadoo.fr,www.trajectoireverslemploi.com,,,,,,,,Decembre 2019,,,,,,,,,,,,,,,,,,,,,,,,,,,,,43.598479,1.44181,43.598479,1.44181,18 Rue des Couteliers,18 Rue des Couteliers 31000 Toulouse,Toulouse,31000,31
Ref_0145,,31,Toulouse,,Lieu Ressource Formation,,31100,11 Place André Abbal,,11 Place André Abbal 31100 Toulouse,Association,Organisme de formation,,05 62 48 53 20,,https://www.lrf.asso.fr/,,,,,,,,Decembre 2019,,,COMP,TP,,,,,,,,,,,,,,,,,,,,,,COMP,TP,,43.571324,1.40088,43.571324,1.40088,11 Place André Abbal,11 Place André Abbal 31100 Toulouse,Toulouse,31100,31
Ref_0146,,31,Toulouse,,CSF – Section Mirail,,31000,14 cheminement le Tintoret,,14 cheminement le Tintoret 31000 Toulouse,Association,Association,,,,www.csfmirailblf.wixsite.com/csfmirail,,,,,,,,Decembre 2019,,,,,,,,,,,,,,,,,,,,,,,,,,,,,43.561405,1.398273,43.561405,1.398273,14 Cheminement le Tintoret,14 Cheminement le Tintoret 31100 Toulouse,Toulouse,31100,31
Ref_0147,,31,Toulouse,,ADPAM,,31000,,,31000 Toulouse,Association,,,,,,,,,,,,,Decembre 2019,,,,,,,,,,,,,,,,,,,,,,,,,,,,,43.604082,1.433805,43.604082,1.433805,Toulouse,Toulouse,Toulouse,31000,31
Ref_0148,,31,Toulouse,,Mieux Vivre Ensemble à la Gloire,,31000,2 rue du général Baurot,,2 rue du général Baurot 31000 Toulouse,Association,,,,,,,,,,,,,Decembre 2019,,,,,,,,,,,,,,,,,,,,,,,,,,,,,43.607658,1.470667,43.607658,1.470667,2 Rue du Général Baurot,2 Rue du Général Baurot 31500 Toulouse,Toulouse,31500,31
Ref_0149,,31,Toulouse,,Mission Locale Bagatelle,Mission locale Toulouse,31100,35 rue du Lot,,35 rue du Lot 31100 Toulouse,,,,05 61 41 35 28,,https://www.mltoulouse.org/,,,,,,,,Decembre 2019,,,ACCDS,J,,,ACCDA,J,,,ORD,J,,,COMP,J,,,,,,,,,,ACCDS-ACCDA-ORD-COMP,J-J-J-J,,43.580211,1.411514,43.580211,1.411514,35 Rue du Lot,35 Rue du Lot 31100 Toulouse,Toulouse,31100,31
Ref_0150,,31,Toulouse,,ASTREE,,31000,,,31000 Toulouse,Association,,,,,,,,,,,,,Decembre 2019,,,,,,,,,,,,,,,,,,,,,,,,,,,,,43.604082,1.433805,43.604082,1.433805,Toulouse,Toulouse,Toulouse,31000,31
Ref_0151,,31,Toulouse,,La case de santé,,31000,17 place Arnaud Bernard,,17 place Arnaud Bernard 31000 Toulouse,Association,,,05 61 23 62 35,contact@casedesante.org,http://casedesante.org/lacase_horaires.html,,,,,,,,Decembre 2019,,,,,,,,,,,,,,,,,,,,,,,,,,,,,43.610785,1.439371,43.610785,1.439371,17 Place Arnaud Bernard,17 Place Arnaud Bernard 31000 Toulouse,Toulouse,31000,31
Ref_0152,,31,Toulouse,,Café social,,31000,38 rue Roquelaine,,38 rue Roquelaine 31000 Toulouse,Association,,,06 18 57 02 52,,,,,,,,,,Decembre 2019,,,,,,,,,,,,,,,,,,,,,,,,,,,,,43.6114,1.44663,43.6114,1.44663,38 Rue Roquelaine,38 Rue Roquelaine 31000 Toulouse,Toulouse,31000,31
Ref_0153,,31,Toulouse,,Mairie de quartier de Serveyrolles – Soupetard,,31000,,,31000 Toulouse,Collectivité territoriale,Mairie de quartier,,,,,,,,,,,,Decembre 2019,,,,,,,,,,,,,,,,,,,,,,,,,,,,,43.604082,1.433805,43.604082,1.433805,Toulouse,Toulouse,Toulouse,31000,31
Ref_0154,,31,Toulouse,,Maison de la citoyenneté Centre,,31000,5 rue Paul Mériel,,5 rue Paul Mériel 31000 Toulouse,Collectivité territoriale,Maison de la citoyenneté,,,,,,,,,,,,Decembre 2019,,,,,,,,,,,,,,,,,,,,,,,,,,,,,43.603967,1.448082,43.603967,1.448082,5 Rue Paul Mériel,5 Rue Paul Mériel 31000 Toulouse,Toulouse,31000,31
Ref_0155,,31,Toulouse,,CCAS,,31000,2 bis rue de belfort,,2 bis rue de belfort 31000 Toulouse,Collectivité territoriale,,,05 61 58 85 85,,,,,,,,,,Decembre 2019,,,,,,,,,,,,,,,,,,,,,,,,,,,,,43.608668,1.452002,43.608668,1.452002,2bis Rue de Belfort,2bis Rue de Belfort 31000 Toulouse,Toulouse,31000,31
Ref_0156,,31,Toulouse,,Centre d'Animation Soupetard,Toulouse Metropôle,31500,63 Chemin de Hérédia,,63 Chemin de Hérédia 31500 Toulouse,,,,05 31 22 99 70,,,,,,,,,,Decembre 2019,,,,,,,,,,,,,,,,,,,,,,,,,,,,,43.614243,1.474656,43.614243,1.474656,63 Chemin de Heredia,63 Chemin de Heredia 31500 Toulouse,Toulouse,31500,31
Ref_0157,,31,Toulouse,,MediPass,,31000,Le Clos Cezanne 40 chemin Amouroux,,Le Clos Cezanne 40 chemin Amouroux 31000 Toulouse,Association,,,06 10 45 05 29,medipass@free.fr,https://medipass.wixsite.com/medipass31,,,,,,,,Decembre 2019,,,ACCDS,TP,,,ACCDA,TP,,,,,,,,,,,,,,,,,,ACCDS-ACCDA,TP-TP,,43.62939,1.46575,43.62939,1.46575,40 Chemin Amouroux,40 Chemin Amouroux 31500 Toulouse,Toulouse,31500,31
Ref_0158,,31,Toulouse,,Olympe SAVIF,,31000,3 Place Guy Hersant,Maison des associations,3 Place Guy Hersant 31000 Toulouse,Association,,,05 61 25 16 13,savifs@free.fr,https://olympesavif.wixsite.com/olympesavif,,,,,,,,Decembre 2019,,,ACCDS,Femme,,,ACCDA,Femme,,,,,,,,,,,,,,,,,,ACCDS-ACCDA,Femme-Femme,,43.577458,1.444038,43.577458,1.444038,3 Place Guy Hersant,3 Place Guy Hersant 31400 Toulouse,Toulouse,31400,31
Ref_0159,,31,Toulouse,,CPAM Bagatelle,CPAM,31100,33 rue du Lot,,33 rue du Lot 31100 Toulouse,,Antenne CPAM,,3646 (numéro payant),,ameli.fr,8h30 - 17h,8h30 - 17h,8h30 - 17h,8h30 - 17h,8h30 - 16h,,,Mars 2021,TP,Gratuit,ORDM,TP,Bornes d'accès multi-services  accueil avec accompagnement,,,,,,ACCDS,,,,ACCDA,,,,,,,,,,,ORDM-ACCDS-ACCDA,TP-TP,,43.580461,1.410717,43.580461,1.410717,33 Rue du Lot,33 Rue du Lot 31100 Toulouse,Toulouse,31100,31
Ref_0160,,31,Toulouse,,Partage Faourette,,31100,13 rue de l'ukraine,,13 rue de l'ukraine 31100 Toulouse,,Centre social,,05 34 60 13 16,,,,,,,,,,Decembre 2019,,,ORDM,,,,ACCDA,,,,COMP,,,,ACCN,,,,,,,,APTIC,,,ORDM-ACCDA-COMP-ACCN,,,43.579038,1.414906,43.579038,1.414906,13 Rue de l'Ukraine,13 Rue de l'Ukraine 31100 Toulouse,Toulouse,31100,31
Ref_0161,,31,Toulouse,,Pôle Emploi La Cepiere,Pôle Emploi,31100,4 Chemin du Pigeonnierue de Cepière,,4 Chemin du Pigeonnierue de Cepière 31100 Toulouse,,Agence Pôle Emploi,,39 49 (numéro payant),,www.pole-emploi.fr,,,,,,,,Mars 2021,,,ORDM,,,,SENS,,,,ACCDS,,,,ACCDA,,,,,,,,,,,ORDM-SENS-ACCDS-ACCDA,,,43.586132,1.400742,43.586132,1.400742,4 Chemin du Pigeonnier de la Cépière,4 Chemin du Pigeonnier de la Cépière 31100 Toulouse,Toulouse,31100,31
Ref_0162,,31,Toulouse,,Pôle Emploi Bellefontaine,Pôle Emploi,31100,63 allées de Bellefontaine,,63 allées de Bellefontaine 31100 Toulouse,,Agence Pôle Emploi,,39 49 (numéro payant),,www.pole-emploi.fr,8h45 - 12h45,8h45 - 12h45,8h45 - 12h45,8h45 - 12h45,8h45 - 12h45,,,Mars 2021,TP,Gratuit,ORDM,TP,Accueil avec accompagnement  impression et scan,,SENS,,,,ACCDS,,,,ACCDA,,,,COMP,TP,"Accès à ""l'emploi store"". Ateliers et formations : 11 postes sur inscription tous les jours de 12H45 à 16H45 sauf le jeudi ",,,,,ORDM-SENS-ACCDS-ACCDA-COMP,TP-TP-TP,,43.565759,1.399923,43.565759,1.399923,63 Allée de Bellefontaine,63 Allée de Bellefontaine 31100 Toulouse,Toulouse,31100,31
Ref_0163,,31,Toulouse,,APSEM,,31100,3 rue Erik SATIE BP 35711,31057 Toulouse cedex 1,3 rue Erik SATIE BP 35711 31100 Toulouse,Association,,,05 34 60 39 40,apsem2@wanadoo.fr,http://apsem-formation.fr/,8H - 17 h,8H - 17 h,8H - 17 h,8H - 17 h,8H - 17 h,8H - 17 h,,Decembre 2019,,,COMP,,,,SENS,,,,,,,,,,,,,,,,,,,COMP-SENS,,,43.568096,1.404642,43.568096,1.404642,3 Rue Erik Satie,3 Rue Erik Satie 31100 Toulouse,Toulouse,31100,31
Ref_0164,,31,Toulouse,,Bell'Arc en Ciel,,31100,14 passage G Duhamel,Apt 299,14 passage G Duhamel 31100 Toulouse,Association,,,09 66 82 55 84,assobellarcenciel@gmail.com,,,,,,,,,Decembre 2019,,,ACCDS,,,,SENS,,,,,,,,,,,,,,,,,,,ACCDS-SENS,,,43.563623,1.394212,43.563623,1.394212,14 Passage Georges Duhamel,14 Passage Georges Duhamel 31100 Toulouse,Toulouse,31100,31
Ref_0165,,31,Toulouse,,Maison des Solidarites,Conseil Départemental,31100,9 rue du Doyen Lefebvre,,9 rue du Doyen Lefebvre 31100 Toulouse,Collectivité territoriale,,,05 62 87 41 50 ,,,8h30-12h / 13h30-17h (sur rendez-vous avec assistante sociale),8h30-12h / 13h30-17h,8h30-12h / 13h30-17h,8h30-12h / 13h30-17h,8h30-12h / 13h30-17h,,,Mars 2021,TP,Gratuit,ACCDS,,,,ACCDA,,,,ORDM,TP,Accueil avec accompagnement  impression et scan ,,,,,,,,,,,,,ACCDS-ACCDA-ORDM,TP-TP,,43.566876,1.396803,43.566876,1.396803,9 Rue du Doyen Lefebvre,9 Rue du Doyen Lefebvre 31100 Toulouse,Toulouse,31100,31
Ref_0166,,31,Toulouse,,Regie de quartier Bellefontaine Services,,31100,41 rue Rimont,,41 rue Rimont 31100 Toulouse,Association,,,09 53 17 88 71,bellefontaine.toulouse@cnlrq.org,www.bellefontaine-services.com,,,,,,,,Decembre 2019,,,ACCN,,,,ACCDS,,,,,,,,,,,,,,,,,,,ACCN-ACCDS,,,43.562362,1.403889,43.562362,1.403889,Rue de Rimont,Rue de Rimont 31100 Toulouse,Toulouse,31100,31
Ref_0167,,31,Toulouse,,Conciergerie solidaire Desbals services,,31100,135 rue henri desbals,,135 rue henri desbals 31100 Toulouse,Association,,,05 62 14 12 55,desbals-services@wanadoo.fr,,,,,,,,,Decembre 2019,,,ACCN,,,,ACCDS,,,,,,,,,,,,,,,,,,,ACCN-ACCDS,,,43.581193,1.413177,43.581193,1.413177,135 Rue Henri Desbals,135 Rue Henri Desbals 31100 Toulouse,Toulouse,31100,31
Ref_0168,,31,Toulouse,,Les imaginations fertiles,,31100,2 rue Raymond Lizop,,2 rue Raymond Lizop 31100 Toulouse,Association,,,05 61 40 92 16,contact@imaginationsfertiles.fr,,,,,,,,,Decembre 2019,,,W,,,,,,,,,,,,,,,,,,,,TL,,,W,,,43.567259,1.398521,43.567259,1.398521,2 Rue Raymond Lizop,2 Rue Raymond Lizop 31100 Toulouse,Toulouse,31100,31
Ref_0169,,31,Toulouse,,Regie de quartier Reynerie Services,,31100,12 place Abbal,,12 place Abbal 31100 Toulouse,Association,,,05 61 44 26 03,laure.reynerieservices@orange.fr,www.reynerie-services.com,8h30-12h30 / 13h30-16h,8h30 - 12h30 / 13h30 - 17h,8h30-12h30 / 13h30-16h,8h30-12h30 / 13h30-16h,8h30 - 11h,,,Mars 2021,,5 euros (prix de l'adhésion à la régie),ORDM,TP,Accueil avec accompagnement  impression et scan,,ENT,TP,5 places le lundi et le vendredi sur inscription,Combustible,,,,,,,,,,,,,,,,ORDM-ENT,TP-TP,,43.571325,1.40107,43.571325,1.40107,12 Place André Abbal,12 Place André Abbal 31100 Toulouse,Toulouse,31100,31
Ref_0170,,31,Toulouse,,Alliances et Cultures MUP,,31100,14 chemin du Mirail,,14 chemin du Mirail 31100 Toulouse,Association,,,05 61 44 67 63,accueil.mup@alliancesetcultures.org,,,,,,,,,Decembre 2019,,,,,,,,,,,,,,,,,,,,,,,,,,,,,43.58124,1.400011,43.58124,1.400011,14 Chemin du Mirail,14 Chemin du Mirail 31100 Toulouse,Toulouse,31100,31
Ref_0171,,31,Toulouse,,Mission Locale Mirail,Mission locale Toulouse,31100,4 allée André Maginot,,4 allée André Maginot 31100 Toulouse,Association,,,05 61 41 77 33,mirail@mltoulouse.org,,,Pour les jeunes de la mission locale : de 9H à 12H30 sur rendez-vous. En accès libre de 13H30 à 17H. ,Pour les jeunes de la mission locale : de 9H à 12H30 sur rendez-vous. En accès libre de 13H30 à 17H. ,Pour les jeunes de la mission locale : de 9H à 12H30 sur rendez-vous. En accès libre de 13H30 à 17H. ,Pour les jeunes de la mission locale : de 9H à 12H30 sur rendez-vous. En accès libre de 13H30 à 17H. ,,,Mars 2021,TP,Gratuit,ACCDS,J,,,ACCDA,J,,,ORDM,TP,Accueil avec accompagnement  impression et scan ,,,,,,,,,,,,,ACCDS-ACCDA-ORDM,TP-J-J-TP,,43.571597,1.402813,43.571597,1.402813,4 Allée André Maginot,4 Allée André Maginot 31100 Toulouse,Toulouse,31100,31
Ref_0172,,31,Toulouse,,Maison de l'initiative,,31100,,,31100 Toulouse,Association,,,05 34 63 81 10,,,,,,,,,,Decembre 2019,,,,,,,,,,,,,,,,,,,,,,,,,,,,,43.604082,1.433805,43.604082,1.433805,Toulouse,Toulouse,Toulouse,31000,31
Ref_0173,,31,Toulouse,,N pays Okhan,,31100,,,31100 Toulouse,Association,,,,,,,,,,,,,Decembre 2019,,,,,,,,,,,,,,,,,,,,,,,,,,,,,43.604082,1.433805,43.604082,1.433805,Toulouse,Toulouse,Toulouse,31000,31
Ref_0174,,31,Toulouse,,Parle avec elles,,31100,2 rue Jean Gilles,,2 rue Jean Gilles 31100 Toulouse,Association,,,06 29 17 61 04,associationparleavecelles@yahoo.fr,,10h - 18h,10h - 12h au 5 rue Erik Satie,10h - 18h,10h - 18h,,,,Mars 2021,TP,Sur RDV,ORDM,TP,Accueil avec accompagnement  Impression et scan,,ENT,TP,Le jeudi de 14h à 16h,Combustible,,,,,,,,,,,,,,,,ORDM-ENT,TP-TP-TP,,43.572437,1.401823,43.572437,1.401823,2 Rue Jean Gilles,2 Rue Jean Gilles 31100 Toulouse,Toulouse,31100,31
Ref_0175,,31,Toulouse,,L'Ecole et Nous,,31100,10 cheminement Le Tintoret,,10 cheminement Le Tintoret 31100 Toulouse,Association,,,05 61 40 49 68 / 06 14 23 25 88,assoecoleetnous@gmail.com,www.ecoleetnous.wixsite.com,,,,,,,,Mars 2021,,,,,,,,,,,,,,,,,,,,,,,APTIC,,,,,,43.561224,1.398586,43.561224,1.398586,10 Cheminement le Tintoret,10 Cheminement le Tintoret 31100 Toulouse,Toulouse,31100,31
Ref_0176,,31,Toulouse,,Bas d'immeubles,,31100,3 chemin Vincent d'Indy,,3 chemin Vincent d'Indy 31100 Toulouse,Association,,,05.62.14.19.70 / 09 72 83 40 47,bas.im@wanadoo.fr,,,,,,,,,Decembre 2019,,,,,,,,,,,,,,,,,,,,,,,,,,,,,43.570219,1.406308,43.570219,1.406308,3 Cheminement Vincent d'Indy,3 Cheminement Vincent d'Indy 31100 Toulouse,Toulouse,31100,31
Ref_0177,,31,Toulouse,,Voir et comprendre,,31100,18 avenue Winston Churchill,,18 avenue Winston Churchill 31100 Toulouse,Association,,,05 62 14 18 19,voir.comprendre@voiretcomprendre.fr,,9H30 - 17H30,9H30 - 17H30,9H30 - 17H30,9H30 - 17H30,9H30 - 17H30,,,Mars 2021,TP,Gratuit,ORDM,TP,Accueil avec accompagnement  impression et scan,,,,,,,,,,,,,,,,,,,,,ORDM,TP-TP,,43.571984,1.401461,43.571984,1.401461,18 Avenue Winston Churchill,18 Avenue Winston Churchill 31100 Toulouse,Toulouse,31100,31
Ref_0178,,31,Toulouse,,Centre social municipal Bellefontaine Lafourguette,,31100,3 impasse Foulquier,,3 impasse Foulquier 31100 Toulouse,,Centre social,,,,,,,,,,,,Decembre 2019,,,,,,,,,,,,,,,,,,,,,,,,,,,,,43.565354,1.40215,43.565354,1.40215,3 Impasse François Foulquier,3 Impasse François Foulquier 31100 Toulouse,Toulouse,31100,31
Ref_0179,,31,Toulouse,,Centre social alliances & Cultures Mirail rive droite,,31100,2 cheminement andré messager,,2 cheminement andré messager 31100 Toulouse,,Centre social,,05 61 44 67 63,,,,,,,,,,Decembre 2019,,,,,,,,,,,,,,,,,,,,,,,,,,,,,43.572473,1.405883,43.572473,1.405883,Cheminement André Messager,Cheminement André Messager 31100 Toulouse,Toulouse,31100,31
Ref_0180,,31,Toulouse,,Centre social CAF Reynerie,,31100,15 place Abbal,,15 place Abbal 31100 Toulouse,,Centre social,Service public,05 34 60 83 92,reynerie.cs@caftoulouse.fr,, 9H30 - 16H30 (et 18H quand la ludothèque est ouverte), 9H30 - 16H30 (et 18H quand la ludothèque est ouverte), 9H30 - 16H30 (et 18H quand la ludothèque est ouverte), 9H30 - 16H30 (et 18H quand la ludothèque est ouverte), 9H30 - 16H30 (et 18H quand la ludothèque est ouverte),,,Mars 2021,TP,8 euros pour l'année,ACCDA,TP,Atelier de conversation en français avec aide informatique le mercredi et vendredi de 9H à 10H30,,ORDM,TP,Bornes avec points d'accès numérique  impression et scan,,,,,,,,,,,,,,,,,ACCDA-ORDM,TP-TP-TP,,43.571282,1.402395,43.571282,1.402395,15 Place André Abbal,15 Place André Abbal 31100 Toulouse,Toulouse,31100,31
Ref_0181,,31,Toulouse,,Espaces Seniors Connectes,,31100,14 place Abbal,,14 place Abbal 31100 Toulouse,Collectivité territoriale,,,,,,,,,,,,,Decembre 2019,,,,,,,,,,,,,,,,,,,,,,,,,,,,,43.571328,1.401353,43.571328,1.401353,14 Place André Abbal,14 Place André Abbal 31100 Toulouse,Toulouse,31100,31
Ref_0182,,31,Toulouse,,point information jeunesse (PIJ) Mirail,,31100,6 chemin Edgarue Varese,,6 chemin Edgarue Varese 31100 Toulouse,Association,,,05 61 72 45 37,pijtoulouse@crij.org,www.ij-mirail.org,14h - 17h ,14h - 17h ,10h - 12h,14h - 17h ,10h - 12h,,,Mars 2021,TP,Gratuit,ORD,TP,,,ORDM,TP,Sur RDV,,ENT,J,Atelier thématique pour les public de moins de 30 ans les mercredi de 14h à 16h,,,,,,,,,,,,,ORD-ORDM-ENT,TP-TP-TP-J,,43.573614,1.40405,43.573614,1.40405,6 Cheminement Edgard Varèse,6 Cheminement Edgard Varèse 31100 Toulouse,Toulouse,31100,31
Ref_0183,,31,Toulouse,,PIJ,,31100,,,31100 Toulouse,,,,,,,,,,,,,,Decembre 2019,,,,,,,,,,,,,,,,,,,,,,,,,,,,,43.604082,1.433805,43.604082,1.433805,Toulouse,Toulouse,Toulouse,31000,31
Ref_0184,,31,Toulouse,,MCEF,,31100,57 allées de Bellefontaine,,57 allées de Bellefontaine 31100 Toulouse,,,,,,,,,,,,,,Decembre 2019,,,,,,,,,,,,,,,,,,,,,,,,,,,,,43.565245,1.400657,43.565245,1.400657,57 Allée de Bellefontaine,57 Allée de Bellefontaine 31100 Toulouse,Toulouse,31100,31
Ref_0185,,31,Toulouse,,maison des solidarités Borderouge,Conseil départemental,31200,4 rue françoise d'eaubonne,Bat A,4 rue françoise d'eaubonne 31200 Toulouse,Collectivité territoriale,,,05 34 36 17 00,,,,,,,,,,Decembre 2019,,,ORD,,,,ACCDA,,,,,,,,,,,,,,,,,,,ORD-ACCDA,,,43.642506,1.453359,43.642506,1.453359,4 Rue Françoise d'Eaubonne,4 Rue Françoise d'Eaubonne 31200 Toulouse,Toulouse,31200,31
Ref_0186,,31,Toulouse,,LA FABRIQUE SOLIDAIRE DES MINIMES (FA SOL MI),,31200,29 bis avenue des Mazades,local des Mazades,29 bis avenue des Mazades 31200 Toulouse,Association,,,05 61 25 38 28,,www.lafabriquesolidaire.org,9h30 - 12h30 et 13h30 - 17h,9h30 - 12h30 et 13h30 - 17h,9h30 - 12h30 et 13h30 - 17h,9h30 - 12h30 et 13h30 - 17h,9h30 - 12h30 et 13h30 - 17h,9h30 - 12h30 et 13h30 - 17h,,Decembre 2019,,,ORDM,,,,SENS,,,,COMP,,,,,,,,,,,,APTIC,,,ORDM-SENS-COMP,,,43.623129,1.441383,43.623129,1.441383,29bis Avenue des Mazades,29bis Avenue des Mazades 31200 Toulouse,Toulouse,31200,31
Ref_0187,,31,Toulouse,,Pole Emploi Borderouge,Pole Emploi,31200,6 rue françoise d'eaubonne,Bat C,6 rue françoise d'eaubonne 31200 Toulouse,,Agence Pôle Emploi,,,,www.pole-emploi.fr,,,,,,,,Decembre 2019,,,ORDM,,,,SENS,,,,,,,,ACCDA,,,,,,,,,,,ORDM-SENS-ACCDA,,,43.643232,1.453016,43.643232,1.453016,6 Rue Françoise d'Eaubonne,6 Rue Françoise d'Eaubonne 31200 Toulouse,Toulouse,31200,31
Ref_0188,,31,Toulouse,,Parole expression,,31200,19 rue Marc Arcis,,19 rue Marc Arcis 31200 Toulouse,Association,,,05 82 95 67 80,,paroleexpression.fr,,,,,,,,Decembre 2019,Etranger,,ACCDA,,,,COMP,,,,,,,,,,,,,,,,,,,ACCDA-COMP,Etranger,,43.623632,1.43616,43.623632,1.43616,19 Rue Marc Arcis,19 Rue Marc Arcis 31200 Toulouse,Toulouse,31200,31
Ref_0189,,31,Toulouse,,maison des solidarités Minimes,Conseil départemental,31200,33 rue joseph jacquard,,33 rue joseph jacquard 31200 Toulouse,Collectivité territoriale,,,05 62 72 77 80,,,,,,,,,,Decembre 2019,,,ACCDA,,,,,,,,,,,,,,,,,,,,,,,ACCDA,,,43.623466,1.427715,43.623466,1.427715,33 Rue Joseph Jacquard,33 Rue Joseph Jacquard 31200 Toulouse,Toulouse,31200,31
Ref_0190,,31,Toulouse,,Secours populaire,Secours populaire,31200,147 avenue des etats unis,,147 avenue des etats unis 31200 Toulouse,Association,,,05 34 40 34 40,,,,,,,,,,Decembre 2019,,,,,,,,,,,,,,,,,,,,,,,,,,,,,43.63554,1.43059,43.63554,1.43059,147 Avenue des Etats Unis,147 Avenue des Etats Unis 31200 Toulouse,Toulouse,31200,31
Ref_0191,,31,Toulouse,,Secours catholique,Secours catholique,31200,place du marche aux cochons,,place du marche aux cochons 31200 Toulouse,Association,,,05 34 25 67 40,,,,,,,,,,Decembre 2019,,,,,,,,,,,,,,,,,,,,,,,,,,,,,43.620412,1.435066,43.620412,1.435066,Place du Marché Aux Cochons,Place du Marché Aux Cochons 31200 Toulouse,Toulouse,31200,31
Ref_0192,,31,Toulouse,,point information jeunesse (PIJ) Quartier Nord,,31200,118 Boulevard Pierre et Marie Curie,,118 Boulevard Pierre et Marie Curie 31200 Toulouse,Association,,,05 62 72 23 78,cyberbasetoulousenord@orange.fr,http://www.pijtoulousenord.org,,,,,,,,Decembre 2019,,,,,,,,,,,,,,,,,,,,,,,,,,,,,43.626305,1.43686,43.626305,1.43686,118 Boulevard Pierre et Marie Curie,118 Boulevard Pierre et Marie Curie 31200 Toulouse,Toulouse,31200,31
Ref_0193,,31,Toulouse,,Entr'act solidarite,,31200,148 avenue de fronton,,148 avenue de fronton 31200 Toulouse,Association,,,05 61 55 59 26,,,,,,,,,,Decembre 2019,,,,,,,,,,,,,,,,,,,,,,,,,,,,,43.637631,1.433421,43.637631,1.433421,148 Avenue de Fronton,148 Avenue de Fronton 31200 Toulouse,Toulouse,31200,31
Ref_0194,,31,Toulouse,,Mission Locale Antenne quartier nord,,31200,1 rue ernest renan,,1 rue ernest renan 31200 Toulouse,Association,,,05 61 57 59 92,,https://www.mltoulouse.org/,,,,,,,,Decembre 2019,,,,,,,,,,,,,,,,,,,,,,,,,,,,,43.632985,1.443884,43.632985,1.443884,Rue Ernest Renan,Rue Ernest Renan 31200 Toulouse,Toulouse,31200,31
Ref_0195,,31,Toulouse,,Centre social Alliances & Cultures Cap Nord,,31200,12 rue Clouet,,12 rue Clouet 31200 Toulouse,,Centre social,,05 61 13 35 96,alliancesetculturesnord@yahoo.fr,www.alliancesetcultures.ouvaton.org,,,,,,,,Decembre 2019,,,,,,,,,,,,,,,,,,,,,,,,,,,,,43.631471,1.43278,43.631471,1.43278,12 Rue Marcel Clouet,12 Rue Marcel Clouet 31200 Toulouse,Toulouse,31200,31
Ref_0196,,31,Toulouse,,CCPS et CARMI,,31200,44 chemin des izards,,44 chemin des izards 31200 Toulouse,,Centre social,,05 62 72 48 50,clshp@ccpst.org carmi@ccpst.org,,,,,,,,,Decembre 2019,,,,,,,,,,,,,,,,,,,,,,,,,,,,,43.639736,1.4445,43.639736,1.4445,44 Chemin des Izards,44 Chemin des Izards 31200 Toulouse,Toulouse,31200,31
Ref_0197,,31,Toulouse,,Alliances et Cultures Les Troênes,,31200,69 rue des Troênes,,69 rue des Troênes 31200 Toulouse,,Centre social,,05 61 57 14 71,,,,,,,,,,Decembre 2019,,,,,,,,,,,,,,,,,,,,,,,,,,,,,43.617705,1.414786,43.617705,1.414786,69 Rue des Troènes,69 Rue des Troènes 31200 Toulouse,Toulouse,31200,31
Ref_0198,,31,Toulouse,,Antenne CCPS Picarel,,31200,26 allées Django Reinhard,,26 allées Django Reinhard 31200 Toulouse,,Centre social,,05 61 70 45 62,,,,,,,,,,Decembre 2019,,,,,,,,,,,,,,,,,,,,,,,,,,,,,43.647936,1.411325,43.647936,1.411325,Allée Django Reinhardt,Allée Django Reinhardt 31200 Toulouse,Toulouse,31200,31
Ref_0199,,31,Toulouse,,Antenne CCPS Les Chênes,,31200,49 rue des mésanges,,49 rue des mésanges 31200 Toulouse,,Centre social,,05 62 75 46 29,,,,,,,,,,Decembre 2019,,,,,,,,,,,,,,,,,,,,,,,,,,,,,43.660754,1.411986,43.660754,1.411986,49 Rue des Mésanges,49 Rue des Mésanges 31200 Toulouse,Toulouse,31200,31
Ref_0200,,31,Toulouse,,Centre social Izards/Borderouge,,31200,1 place Micoulaud,,1 place Micoulaud 31200 Toulouse,,Centre social,,05 67 04 14 80,,,,,,,,,,Decembre 2019,,,COMP,TP,,,ORD,ALL,Libre,,ORD,TP,Libre,,,,,,,,,,,,,COMP-ORD-ORD,TP-ALL-TP,,43.638133,1.443975,43.638133,1.443975,Place Micoulaud,Place Micoulaud 31100 Toulouse,Toulouse,31100,31
Ref_0201,,31,Toulouse,,MJC Croix-Daurade,,31200,,,31200 Toulouse,,,,,,http://www.mjccroixdaurade.fr/,,,,,,,,Decembre 2019,,,,,,,,,,,,,,,,,,,,,,,,,,,,,43.646715,1.433067,43.646715,1.433067,Avenue de Fronton,Avenue de Fronton 31200 Toulouse,Toulouse,31200,31
Ref_0202,,31,Cugnaux,,Espace Arc-En-Ciel,,31270,1 rue Vincent Auriol,,1 rue Vincent Auriol 31270 Cugnaux,,Centre social,,05 62 87 30 11,,,,,,,,,,Decembre 2019,,,,,,,,,,,,,,,,,,,,,,,,,,,,,43.53732,1.346527,43.53732,1.346527,Rue Vincent Auriol,Rue Vincent Auriol 31270 Cugnaux,Cugnaux,31270,31
Ref_0203,,31,Castanet-Tolosan,,maison des solidarités Castanet-Tolosan,Conseil départemental,31300,68 avenue de Lauragais,,68 avenue de Lauragais 31300 Castanet-Tolosan,Collectivité territoriale,,,05 62 71 91 80,,,,,,,,,,Decembre 2019,,,ACCDA,,,,,,,,,,,,,,,,,,,,,,,ACCDA,,,43.512644,1.500883,43.512644,1.500883,68 Avenue du Lauragais,68 Avenue du Lauragais 31320 Castanet-Tolosan,Castanet-Tolosan,31320,31
Ref_0204,,31,Toulouse,,Centre Social – ASSQOT,,31300,18 rue Vincent Scotto,,18 rue Vincent Scotto 31300 Toulouse,,Centre social,,,,www.assqot.com,,,,,,,,Decembre 2019,,,,,,,,,,,,,,,,,,,,,,,,,,,,,43.598293,1.416982,43.598293,1.416982,18 Rue Vincent Scotto,18 Rue Vincent Scotto 31300 Toulouse,Toulouse,31300,31
Ref_0205,,31,Toulouse,,Centre social annexe Arenes romaines,,31300,107 avenue des Arènes Romaines,,107 avenue des Arènes Romaines 31300 Toulouse,,Centre social,,05 61 16 09 46,,,,,,,,,,Decembre 2019,,,,,,,,,,,,,,,,,,,,,,,,,,,,,43.615071,1.396945,43.615071,1.396945,107 Avenue des Arènes Romaines,107 Avenue des Arènes Romaines 31300 Toulouse,Toulouse,31300,31
Ref_0206,,31,Toulouse,,CCPS Hameau de fleurance,,31300,12 impasse benozzi,,12 impasse benozzi 31300 Toulouse,,Centre social,,05 62 72 48 50,,,,,,,,,,Decembre 2019,,,,,,,,,,,,,,,,,,,,,,,,,,,,,43.603236,1.353572,43.603236,1.353572,12 Impasse Jeanne Benozzi,12 Impasse Jeanne Benozzi 31300 Toulouse,Toulouse,31300,31
Ref_0207,,31,Toulouse,,Point Infomartions Jeunesse Empalot,,31400,,,31400 Toulouse,Collectivité territoriale,,,,,,,,,,,,,Decembre 2019,,,ORD,,,,ACCDS,,,,,,,,,,,,,,,,,,,ORD-ACCDS,,,43.582902,1.472589,43.582902,1.472589,Avenue Antoine de Saint Exupéry,Avenue Antoine de Saint Exupéry 31400 Toulouse,Toulouse,31400,31
Ref_0208,,31,Toulouse,,Mediatheque Empalot,Toulouse Metropôle,31400,40 avenue jean moulin,,40 avenue jean moulin 31400 Toulouse,Collectivité territoriale,,,,,,,,,,,,,Decembre 2019,,,ORD,TP,Nécessité d'avoir une carte d'adhésion,,SENS,,,,COMP,,,,,,,,,,,,,,,ORD-SENS-COMP,TP,,43.578868,1.441595,43.578868,1.441595,40 Avenue Jean Moulin,40 Avenue Jean Moulin 31400 Toulouse,Toulouse,31400,31
Ref_0209,,31,Toulouse,,maison des citoyennetes Niel,Toulouse Metropôle,31400,81 rue saint roch,,81 rue saint roch 31400 Toulouse,Collectivité territoriale,,,,,,,,,,,,,Decembre 2019,,,ORD,,,,,,,,,,,,,,,,,,,,,,,ORD,,,43.578796,1.44655,43.578796,1.44655,81 Rue Saint Roch,81 Rue Saint Roch 31400 Toulouse,Toulouse,31400,31
Ref_0210,,31,Toulouse,,Bibliotheque Mediatheque Rangueil,Toulouse Metropôle,31400,19 rue claude forbin,,19 rue claude forbin 31400 Toulouse,Collectivité territoriale,,,,,,,,,,,,,Decembre 2019,,,ORD,,,,,,,,,,,,,,,,,,,,,,,ORD,,,43.574867,1.46395,43.574867,1.46395,19 Rue Claude de Forbin,19 Rue Claude de Forbin 31400 Toulouse,Toulouse,31400,31
Ref_0211,,31,Toulouse,,Bib' Insa,,31400,135 avenue de rangueil,,135 avenue de rangueil 31400 Toulouse,,,,,,,,,,,,,,Decembre 2019,,,ORD,,,,,,,,,,,,,,,,,,,,,,,ORD,,,43.569183,1.466106,43.569183,1.466106,135 Avenue de Rangueil,135 Avenue de Rangueil 31400 Toulouse,Toulouse,31400,31
Ref_0212,,31,Toulouse,,Bibliotheque Universitaire de Sciences,,31400,118 rte de narbonne,,118 rte de narbonne 31400 Toulouse,,,,,,,,,,,,,,Decembre 2019,,,ORD,,,,,,,,,,,,,,,,,,,,,,,ORD,,,43.561566,1.463029,43.561566,1.463029,118 Route de Narbonne,118 Route de Narbonne 31400 Toulouse,Toulouse,31400,31
Ref_0213,,31,Toulouse,,Avenir Nouvelle maison des chomeurs,,31400,115 rue bonnat,,115 rue bonnat 31400 Toulouse,Association,,,05 34 31 33 11,avenir.toulouse@wanadoo.fr,https://maisondeschomeurs.org,9h-12h,9h-12h,9h-12h,9h-12h,9h-12h,,,Decembre 2019,,,ORDM,TP,tous les matins,,ACCDS,TP ETR DE,Sur rendez-vous,,SENS,TP,1 fois par mois,,COMP,TP DE,Sur inscription,Sur inscription,,,,,EPN-TL-APTIC,Oui,,ORDM-ACCDS-SENS-COMP,TP-TP ETR DE-TP-TP DE,,43.581165,1.45768,43.581165,1.45768,115 Rue Bonnat,115 Rue Bonnat 31400 Toulouse,Toulouse,31400,31
Ref_0214,,31,Toulouse,,Maison Des Solidarités Empalot,Conseil Départemental,31400,32 allée henri sellier,,32 allée henri sellier 31400 Toulouse,Collectivité territoriale,,,05 61 14 76 00,,,,,,,,,,Decembre 2019,,,ORDM,,,,ACCDA,,,,,,,,,,,,,,,,,,,ORDM-ACCDA,,,43.577351,1.43808,43.577351,1.43808,32 Allée Henri Sellier,32 Allée Henri Sellier 31400 Toulouse,Toulouse,31400,31
Ref_0215,,31,Toulouse,,Centre social Jean Moulin / Empalot (CAF),,31400,38 avenue jean moulin,,38 avenue jean moulin 31400 Toulouse,,Centre social,,05 34 31 94 42,,https://www.facebook.com/cs.empalot/,8h30 - 17h30,8h30 - 17h30,8h30 - 17h30,8h30 - 17h30,8h30 - 17h30,8h30 - 17h30,,Decembre 2019,TP,Libre,ORDM,,,,ACCDS,,,,SENS,,,,ORDM,ALL,,,,,,,,,,ORDM-ACCDS-SENS-ORDM,TP-ALL,,43.579108,1.441695,43.579108,1.441695,38 Avenue Jean Moulin,38 Avenue Jean Moulin 31400 Toulouse,Toulouse,31400,31
Ref_0216,,31,Toulouse,,Mission Locale Empalot,Mission locale Toulouse,31400,6 Place Guy Hersant,,6 Place Guy Hersant 31400 Toulouse,Collectivité territoriale,,,05 34 31 25 25,,www.mltoulouse.org,,,,,,,,Decembre 2019,,,ORDM,,,,ACCDA,,,,,,,,,,,,,,,,,,,ORDM-ACCDA,,,43.577638,1.443388,43.577638,1.443388,6 Place Guy Hersant,6 Place Guy Hersant 31400 Toulouse,Toulouse,31400,31
Ref_0217,,31,Toulouse,,Pole emploi St Michel,Pôle Emploi,31400,2 avenue de l'urss,,2 avenue de l'urss 31400 Toulouse,,Agence Pôle Emploi,,,,,,,,,,,,Decembre 2019,,,ORDM,,,,ACCDA,,,,SENS,,,,,,,,,,,,,,,ORDM-ACCDA-SENS,,,43.583959,1.448217,43.583959,1.448217,2 Avenue de l'URSS,2 Avenue de l'URSS 31100 Toulouse,Toulouse,31100,31
Ref_0218,,31,Toulouse,,Pole emploi La plaine,Pôle Emploi,31400,1 impasse rene couzinet,,1 impasse rene couzinet 31400 Toulouse,,Agence Pôle Emploi,,,,,,,,,,,,Decembre 2019,,,ORDM,,,,ACCDA,,,,SENS,,,,,,,,,,,,,,,ORDM-ACCDA-SENS,,,43.582804,1.492372,43.582804,1.492372,1 Impasse René Couzinet,1 Impasse René Couzinet 31500 Toulouse,Toulouse,31500,31
Ref_0219,,31,Toulouse,,Rangueil club de prevention,Toulouse Metropôle,31400,34 avenue de Rangueil,,34 avenue de Rangueil 31400 Toulouse,Collectivité territoriale,,,,,,,,,,,,,Decembre 2019,,,ORDM,,,,ACCDA,,,,,,,,,,,,,,,,,,,ORDM-ACCDA,,,43.576559,1.454654,43.576559,1.454654,34 Avenue de Rangueil,34 Avenue de Rangueil 31400 Toulouse,Toulouse,31400,31
Ref_0220,,31,Toulouse,,Centre Epide,,31400,3 avenue du professeurue Joseph Ducuing,,3 avenue du professeurue Joseph Ducuing 31400 Toulouse,,,,05 81 60 89 89,,www.epide.fr,,,,,,,,Decembre 2019,,,ORDM,,,,COMP,,,,ACCDA,,,,SENS,,,,,,,,,,,ORDM-COMP-ACCDA-SENS,,,43.561901,1.45923,43.561901,1.45923,Avenue du Professeur Joseph Ducuing,Avenue du Professeur Joseph Ducuing 31100 Toulouse,Toulouse,31100,31
Ref_0221,,31,Toulouse,,Rectorat,Rectorat 31,31400,75 rue saint roch,,75 rue saint roch 31400 Toulouse,,,,,,,,,,,,,,Decembre 2019,,,ORDM,,,,,,,,,,,,,,,,,,,,,,,ORDM,,,43.578426,1.447024,43.578426,1.447024,75 Rue Saint Roch,75 Rue Saint Roch 31400 Toulouse,Toulouse,31400,31
Ref_0222,,31,Toulouse,,MJC du Pont des demoiselles,,31400,63 bis avenue Saint-Exupéry,,63 bis avenue Saint-Exupéry 31400 Toulouse,Association,,,05 61 52 24 33,contact@mjcpontdesdemoiselles.fr,http://mjc.demoiselles.free.fr/,,,,,,,,Decembre 2019,,,COMP,,,,,,,,,,,,,,,,,,,,,,,COMP,,,43.585621,1.465934,43.585621,1.465934,63bis Avenue Antoine de Saint Exupéry,63bis Avenue Antoine de Saint Exupéry 31400 Toulouse,Toulouse,31400,31
Ref_0223,,31,Toulouse,,Relai 2A (association Le relai),,31400,15 rue du japon,,15 rue du japon 31400 Toulouse,Association,,,,,,,,,,,,,Decembre 2019,,,COMP,,,,ACCDA,,,,,,,,,,,,,,,,,,,COMP-ACCDA,,,43.590454,1.45837,43.590454,1.45837,15 Rue du Japon,15 Rue du Japon 31400 Toulouse,Toulouse,31400,31
Ref_0224,,31,Toulouse,,Antenne GRETA,GRETA,31400,3 rue andré daste,,3 rue andré daste 31400 Toulouse,Entreprise,,,,,,,,,,,,,Decembre 2019,,,COMP,,,,,,,,,,,,,,,,,,,,,,,COMP,,,43.58155,1.43935,43.58155,1.43935,3 Rue André Daste,3 Rue André Daste 31400 Toulouse,Toulouse,31400,31
Ref_0225,,31,Toulouse,,Ligue de l'enseignement,Ligue de l'enseignement,31400,38 avenue Jean Moulin,,38 avenue Jean Moulin 31400 Toulouse,Association,,,,,,,,,,,,,Decembre 2019,,,SENS,,,,COMP,,,,,,,,,,,,,,,,,,,SENS-COMP,,,43.579108,1.441695,43.579108,1.441695,38 Avenue Jean Moulin,38 Avenue Jean Moulin 31400 Toulouse,Toulouse,31400,31
Ref_0226,,31,Toulouse,,La main à la pate,,31400,62 rue de Nîmes,,62 rue de Nîmes 31400 Toulouse,Association,,,,,,,,,,,,,Decembre 2019,,,ACCDS,,,,,,,,,,,,,,,,,,,,,,,ACCDS,,,43.575318,1.465174,43.575318,1.465174,62 Rue de Nîmes,62 Rue de Nîmes 31400 Toulouse,Toulouse,31400,31
Ref_0227,,31,Toulouse,,Generations solidaires,,31400,30 avenue jean moulin,,30 avenue jean moulin 31400 Toulouse,Association,,,,,,,,,,,,,Decembre 2019,,,ACCDS,,,,ACCN,,,,,,,,,,,,,,,,,,,ACCDS-ACCN,,,43.580927,1.441941,43.580927,1.441941,30 Avenue Jean Moulin,30 Avenue Jean Moulin 31400 Toulouse,Toulouse,31400,31
Ref_0228,,31,Toulouse,,ASEER,,31400,38 avenue jean moulin,,38 avenue jean moulin 31400 Toulouse,Association,,,05 61 14 26 12,aseer@laposte.net,,,,,,,,,Decembre 2019,,,ACCDS,,,,,,,,,,,,,,,,,,,,,,,ACCDS,,,43.579108,1.441695,43.579108,1.441695,38 Avenue Jean Moulin,38 Avenue Jean Moulin 31400 Toulouse,Toulouse,31400,31
Ref_0229,,31,Toulouse,,Centre annexe Empalot,Conseil Départemental,31400,10 rue jean paul blanchard,,10 rue jean paul blanchard 31400 Toulouse,Collectivité territoriale,,,05 61 14 94 20,,,,,,,,,,Decembre 2019,,,ACCDA,,,,,,,,,,,,,,,,,,,,,,,ACCDA,,,43.588288,1.447981,43.588288,1.447981,10 Rue Jean Pierre Blanchard,10 Rue Jean Pierre Blanchard 31400 Toulouse,Toulouse,31400,31
Ref_0230,,31,Toulouse,,Maison Des Solidarités Rangueil,Conseil Départemental,31400,39 rue camille desmoullins,,39 rue camille desmoullins 31400 Toulouse,Collectivité territoriale,,,,,,,,,,,,,Decembre 2019,,,ACCDA,,,,,,,,,,,,,,,,,,,,,,,ACCDA,,,43.581596,1.453397,43.581596,1.453397,39 Rue Camille Desmoulins,39 Rue Camille Desmoulins 31400 Toulouse,Toulouse,31400,31
Ref_0231,,31,Toulouse,,Maison Des Solidarités Pont des demoiselles,Conseil Départemental,31400,PLACE MENDES FRANCE,,PLACE MENDES FRANCE 31400 Toulouse,Collectivité territoriale,,,,,,,,,,,,,Decembre 2019,,,ACCDA,,,,,,,,,,,,,,,,,,,,,,,ACCDA,,,43.587694,1.461542,43.587694,1.461542,Place Pierre Mendes France,Place Pierre Mendes France 31400 Toulouse,Toulouse,31400,31
Ref_0232,,31,Toulouse,,AIFOMEJ,,31400,5 impasse des hérons,,5 impasse des hérons 31400 Toulouse,Association,,,05 61 53 52 34,,,,,,,,,,Decembre 2019,,,ACCN,,,,ACCDS,,,,,,,,,,,,,,,,,,,ACCN-ACCDS,,,43.57568,1.437123,43.57568,1.437123,5 Impasse des Hérons,5 Impasse des Hérons 31400 Toulouse,Toulouse,31400,31
Ref_0233,,31,Toulouse,,Karavan,,31400,,,31400 Toulouse,Association,,,,,,,,,,,,,Decembre 2019,,,,,,,,,,,,,,,,,,,,,,,,,,,,,43.582902,1.472589,43.582902,1.472589,Avenue Antoine de Saint Exupéry,Avenue Antoine de Saint Exupéry 31400 Toulouse,Toulouse,31400,31
Ref_0234,,31,Toulouse,,CIDFF,,31400,95 grande rue st michel,,95 grande rue st michel 31400 Toulouse,Association,,,05 34 31 23 31,cidff31@cdiff31.fr,,,,,,,,,Decembre 2019,,,,,,,,,,,,,,,,,,,,,,,,,,,,,43.588909,1.445985,43.588909,1.445985,95 Grande-Rue Saint Michel,95 Grande-Rue Saint Michel 31400 Toulouse,Toulouse,31400,31
Ref_0235,,31,Toulouse,,Empalot Services,,31400,,,31400 Toulouse,Association,,,,toulouse-empalot@cnlrq.org,,,,,,,,,Decembre 2019,,,,,,,,,,,,,,,,,,,,,,,,,,,,,43.582902,1.472589,43.582902,1.472589,Avenue Antoine de Saint Exupéry,Avenue Antoine de Saint Exupéry 31400 Toulouse,Toulouse,31400,31
Ref_0236,,31,Toulouse,,Restos du coeur,Restos du coeur,31400,286 rte de revel,,286 rte de revel 31400 Toulouse,Association,,,09 83 98 46 19,,,,,,,,,,Decembre 2019,,,,,,,,,,,,,,,,,,,,,,,,,,,,,43.565954,1.510915,43.565954,1.510915,286 Route de Revel,286 Route de Revel 31400 Toulouse,Toulouse,31400,31
Ref_0237,,31,Toulouse,,Emmaüs Agir,Emmaüs,31400,43 avenue de l'URSS,,43 avenue de l'URSS 31400 Toulouse,Association,,,,,,,,,,,,,Decembre 2019,,,,,,,,,,,,,,,,,,,,,,,,,,,,,43.581551,1.448801,43.581551,1.448801,43 Avenue de l'URSS,43 Avenue de l'URSS 31100 Toulouse,Toulouse,31100,31
Ref_0238,,31,Toulouse,,Maison Des Solidarités Montaudran,Conseil Départemental,31400,,,31400 Toulouse,Collectivité territoriale,,,,,,,,,,,,,Decembre 2019,,,,,,,,,,,,,,,,,,,,,,,,,,,,,43.582902,1.472589,43.582902,1.472589,Avenue Antoine de Saint Exupéry,Avenue Antoine de Saint Exupéry 31400 Toulouse,Toulouse,31400,31
Ref_0239,,31,Toulouse,,Mairie de quartier Pont des Demoiselles,,31400,,,31400 Toulouse,Collectivité territoriale,,,,,,,,,,,,,Decembre 2019,,,,,,,,,,,,,,,,,,,,,,,,,,,,,43.582902,1.472589,43.582902,1.472589,Avenue Antoine de Saint Exupéry,Avenue Antoine de Saint Exupéry 31400 Toulouse,Toulouse,31400,31
Ref_0240,,31,Toulouse,,Maison de quartier rangueil/centre social,,31400,,,31400 Toulouse,Collectivité territoriale,,,,,,,,,,,,,Decembre 2019,,,,,,,,,,,,,,,,,,,,,,,,,,,,,43.582902,1.472589,43.582902,1.472589,Avenue Antoine de Saint Exupéry,Avenue Antoine de Saint Exupéry 31400 Toulouse,Toulouse,31400,31
Ref_0241,,31,Toulouse,,Bibliotheque des ponts des demoiselles,,31400,63 bis avenue st exupery,,63 bis avenue st exupery 31400 Toulouse,Collectivité territoriale,,,,,,,,,,,,,Decembre 2019,,,,,,,,,,,,,,,,,,,,,,,,,,,,,43.585621,1.465934,43.585621,1.465934,63bis Avenue Antoine de Saint Exupéry,63bis Avenue Antoine de Saint Exupéry 31400 Toulouse,Toulouse,31400,31
Ref_0242,,31,Toulouse,,Cosmopolitaine,,31400,,,31400 Toulouse,Association,,,,contact@cosmopolitaine.org,,,,,,,,,Decembre 2019,,,,,,,,,,,,,,,,,,,,,,,,,,,,,43.582902,1.472589,43.582902,1.472589,Avenue Antoine de Saint Exupéry,Avenue Antoine de Saint Exupéry 31400 Toulouse,Toulouse,31400,31
Ref_0243,,31,Toulouse,,CLCV,,31400,,,31400 Toulouse,,,,,,,,,,,,,,Decembre 2019,,,,,,,,,,,,,,,,,,,,,,,,,,,,,43.582902,1.472589,43.582902,1.472589,Avenue Antoine de Saint Exupéry,Avenue Antoine de Saint Exupéry 31400 Toulouse,Toulouse,31400,31
Ref_0244,,31,Toulouse,,Centre social Jolimont Soupetard,,31500,Centre social Jolimont 11 avenue de l'observatoire,,Centre social Jolimont 11 avenue de l'observatoire 31500 Toulouse,,Centre social,,05 31 22 94 84,Jolimont.cs@mairie-toulouse.fr,,,,,9h-12h30 et 13h30-17h/16h30,9h-12h30 et 13h30-17h/16h30,,,Decembre 2019,,,ORD,,,,COMP,,,,,,,,,,,,,,,,,,,ORD-COMP,,,43.61352,1.462468,43.61352,1.462468,11 Avenue de l'Observatoire,11 Avenue de l'Observatoire 31500 Toulouse,Toulouse,31500,31
Ref_0245,,31,Toulouse,,Fédération des Femmes pour l'Europe (FFPE),,31500,1 rue Léon Jouhaux,,1 rue Léon Jouhaux 31500 Toulouse,Association,,,,,www.ffpe-toulouse.org,,,,,,,,Decembre 2019,,,COMP,,,,ACCDS,,,,,,,,,,,,,,,,APTIC,,,COMP-ACCDS,,,43.613273,1.460711,43.613273,1.460711,1 Rue Léon Jouhaux,1 Rue Léon Jouhaux 31500 Toulouse,Toulouse,31500,31
Ref_0246,,31,Toulouse,,Mission Locale centre,,31500,24 rue Garipuy,,24 rue Garipuy 31500 Toulouse,Association,,,,,,,,,,,,,Decembre 2019,J,,,,,,,,,,,,,,,,,,,,,,,,,,J,,43.611391,1.457803,43.611391,1.457803,24 Rue Garipuy,24 Rue Garipuy 31500 Toulouse,Toulouse,31500,31
Ref_0247,,31,Toulouse,,Mission Locale Antenne Jolimont,,31500,,,31500 Toulouse,Association,,,,,,,,,,,,,Decembre 2019,,,,,,,,,,,,,,,,,,,,,,,,,,,,,43.589322,1.471196,43.589322,1.471196,Avenue Jean Rieux,Avenue Jean Rieux 31500 Toulouse,Toulouse,31500,31
Ref_0248,,31,Toulouse,,Agir et devenir,,31500,,,31500 Toulouse,Association,,,,agiretdevenir@live.fr,,,,,,,,,Decembre 2019,,,,,,,,,,,,,,,,,,,,,,,,,,,,,43.589322,1.471196,43.589322,1.471196,Avenue Jean Rieux,Avenue Jean Rieux 31500 Toulouse,Toulouse,31500,31
Ref_0249,,31,Toulouse,,Centre social Jean Rieux,,31500,,,31500 Toulouse,,Centre social,,,,https://www.cpjr.fr/,,,,,,,,Decembre 2019,,,,,,,,,,,,,,,,,,,,,,,,,,,,,43.589322,1.471196,43.589322,1.471196,Avenue Jean Rieux,Avenue Jean Rieux 31500 Toulouse,Toulouse,31500,31
Ref_0250,,31,Toulouse,,APSAR,,31500,70 chemin michoun,,70 chemin michoun 31500 Toulouse,Association,Centre social,,05 82 08 11 70,,https://www.associationapsar.org/,8h30-12h30 13h30-19h,8h30-12h30 13h30-19h,8h30-12h30 13h30-19h,8h30-12h30 13h30-19h,8h30-12h30 13h30-19h,10h-12h 15h-18h,,Février 2021,TP,,ORDM,TP,Nos ordinateurs sont mis à disposition pour faciliter les démarches en ligne et pouvoir avoir accès à une photocopie,,REP,TP,Un habitant bénévole anime cet atelier de réparation. Il apprend aux habitants à réparer eux même.,,ACCDA,TP,2 ordinateurs mis à disposition dans l'espace d'accueil du centre social. Imprimante et photocopie sous conditions d'adhésion à l'association de 10€ (adhésion familiale). Les impressions sont soumises à des règles> document administratifs relatifs à la recherche d'emploi  logement  scolarité.. Accès sur les heures d'ouvertures du centre social. Une salariée en charge de l'insertion et de l'accompagnement individuel sur rendez vous.Une salariée en charge de l'insertion et de l'accompagnement individuel sur rendez vous.,,FL,TP,Le fablab est un établissement à part du centre social implanté sur la cité La Gloire. 8 ordinateurs  3 imprimante 3D  polargaphe  appareil photos numériques,Le fablab est un établissement à part du centre social implanté sur la cité La Gloire. 8 ordinateurs  3 imprimante 3D  polargaphe  appareil photos numériques,COMP,TP,Le jeudi matin,,,oui,,ORDM-REP-ACCDA-FL-COMP,TP-TP-TP-TP-TP-TP,,43.626559,1.468206,43.626559,1.468206,70 Chemin Michoun,70 Chemin Michoun 31500 Toulouse,Toulouse,31500,31
Ref_0251,,31,Toulouse,,Centre social Jolimont,,31500,11 avenue de l'observatoire,,11 avenue de l'observatoire 31500 Toulouse,,Centre social,,05 67 77 44 80,,,,,,,,,,Decembre 2019,,,,,,,,,,,,,,,,,,,,,,,,,,,,,43.61352,1.462468,43.61352,1.462468,11 Avenue de l'Observatoire,11 Avenue de l'Observatoire 31500 Toulouse,Toulouse,31500,31
Ref_0252,,31,Toulouse,,Maison Des Solidarités Bonnefoy/Amouroux,Conseil Départemental,31500,3 rue du faubourg bonnefoy,,3 rue du faubourg bonnefoy 31500 Toulouse,Collectivité territoriale,,,05 34 25 51 00,,,,,,,,,,Decembre 2019,,,,,,,,,,,,,,,,,,,,,,,,,,,,,43.616349,1.453242,43.616349,1.453242,3 Rue du Faubourg Bonnefoy,3 Rue du Faubourg Bonnefoy 31500 Toulouse,Toulouse,31500,31
Ref_0253,,31,Toulouse,,Centre social polyvalent Jean Rieux,,31500,157 avenue jean rieux,,157 avenue jean rieux 31500 Toulouse,,Centre social,,05 61 54 80 00,,www.cpjr.fr,,,,,,,,Decembre 2019,TP,Libre,COMP,,,,ACCDS,,,,,,,,,,,,,,,,,,,COMP-ACCDS,TP,,43.591859,1.468456,43.591859,1.468456,157 Avenue Jean Rieux,157 Avenue Jean Rieux 31500 Toulouse,Toulouse,31500,31
Ref_0254,,31,Toulouse,,Centre social ASPAR,,31500,70 chemin Michoun,,70 chemin Michoun 31500 Toulouse,,Centre social,,,,,,,,,,,,Decembre 2019,TP,Libre,ORDM,,,,COMP,,,,,,,,,,,,,,,,,,,ORDM-COMP,TP,,43.626559,1.468206,43.626559,1.468206,70 Chemin Michoun,70 Chemin Michoun 31500 Toulouse,Toulouse,31500,31
Ref_0255,,31,Toulouse,,Centre social Jolimont Soupetard,,31500,Antenne soupetard 12 rue charles garnier,,Antenne soupetard 12 rue charles garnier 31500 Toulouse,,Centre social,,05 31 22 95 15,Jolimont.cs@mairie-toulouse.fr,,,9h-12h30 et 13h30-17h,9h-12h30 et 13h30-17h,,,,,Decembre 2019,,,,,,,,,,,,,,,,,,,,,,,,,,,,,43.608485,1.477852,43.608485,1.477852,12 Rue Charles Garnier,12 Rue Charles Garnier 31500 Toulouse,Toulouse,31500,31
Ref_0256,,31,Toulouse,,Mediatheque Jose Cabanis,,31500,1 Allée Jacques Chaban-Delmas,,1 Allée Jacques Chaban-Delmas 31500 Toulouse,Collectivité territoriale,Bibliothèque,,05 62 27 40 00,,https://www.bibliotheque.toulouse.fr/bibliotheques/mediatheque-jose-cabanis/,,,,,,,,Decembre 2019,,,ORD,TP,,,ACCDS,,sur rendez-vous,,ACCN,,sur rednez-vous,,COMP,,Thématiques et dates à consultez sur : https://www.bibliotheque.toulouse.fr/theme-evenement/culture-numerique/,Thématiques et dates à consultez sur : https://www.bibliotheque.toulouse.fr/theme-evenement/culture-numerique/,SENS,,Thématiques et dates à consultez sur : https://www.bibliotheque.toulouse.fr/theme-evenement/culture-numerique/,,,,,ORD-ACCDS-ACCN-COMP-SENS,TP,,43.61026,1.455431,43.61026,1.455431,1 Allée Jacques Chaban-Delmas,1 Allée Jacques Chaban-Delmas 31500 Toulouse,Toulouse,31500,31
Ref_0257,,31,Toulouse,,Maison de la citoyenneté Est,,31500,8 bis avenue du parc,,8 bis avenue du parc 31500 Toulouse,Collectivité territoriale,,,05 31 22 93 00,mdc.est@mairie-toulouse.fr,,,,,,,,,Decembre 2019,,,,,,,,,,,,,,,,,,,,,,,,,,,,,43.620189,1.470204,43.620189,1.470204,8bis Avenue du Parc,8bis Avenue du Parc 31500 Toulouse,Toulouse,31500,31
Ref_0258,,31,Toulouse,,Pole Emploi Jolimont,Pôle Emploi,31500,,,31500 Toulouse,,Agence Pôle Emploi,,,,,,,,,,,,Decembre 2019,,,,,,,,,,,,,,,,,,,,,,,,,,,,,43.589322,1.471196,43.589322,1.471196,Avenue Jean Rieux,Avenue Jean Rieux 31500 Toulouse,Toulouse,31500,31
Ref_0259,,31,Toulouse,,Mediathèque Serveyrolles,,31500,,,31500 Toulouse,,,,,,,,,,,,,,Decembre 2019,,,ORD,TP,,,,,,,,,,,,,,,,,,,,,,ORD,TP,,43.589322,1.471196,43.589322,1.471196,Avenue Jean Rieux,Avenue Jean Rieux 31500 Toulouse,Toulouse,31500,31
